{"version": 0.6, "generator": "Overpass API 0.7.62.11 87bfad18", "osm3s": {"timestamp_osm_base": "2026-07-18T01:00:49Z", "copyright": "The data included in this document is from www.openstreetmap.org. The data is made available under ODbL."}, "elements": [{"type": "node", "id": 49597792, "lat": 38.8659432, "lon": -77.2910288}, {"type": "node", "id": 49597793, "lat": 38.8658885, "lon": -77.291267}, {"type": "node", "id": 49597794, "lat": 38.8658066, "lon": -77.2914611}, {"type": "node", "id": 49597795, "lat": 38.8657867, "lon": -77.2916471, "tags": {"crossing": "unmarked", "crossing:markings": "no", "highway": "crossing"}}, {"type": "node", "id": 49597796, "lat": 38.8658171, "lon": -77.2916889}, {"type": "node", "id": 63424866, "lat": 38.8146633, "lon": -77.3028589}, {"type": "node", "id": 63512495, "lat": 38.833472, "lon": -77.251781}, {"type": "node", "id": 63786773, "lat": 38.8341, "lon": -77.251898}, {"type": "node", "id": 63786778, "lat": 38.833808, "lon": -77.251918}, {"type": "node", "id": 63786789, "lat": 38.833272, "lon": -77.251544}, {"type": "node", "id": 63847526, "lat": 38.834125, "lon": -77.251638}, {"type": "node", "id": 356560728, "lat": 38.884377, "lon": -77.244495}, {"type": "node", "id": 356561488, "lat": 38.8399478, "lon": -77.3230269}, {"type": "node", "id": 356561699, "lat": 38.87926, "lon": -77.30709, "tags": {"amenity": "school", "ele": "122", "gnis:feature_id": "1466717", "name": "Flint Hill Lower School"}}, {"type": "node", "id": 356561700, "lat": 38.8949807, "lon": -77.2850534}, {"type": "node", "id": 356561954, "lat": 38.8171691, "lon": -77.2744893, "tags": {"addr:city": "Fairfax", "addr:housenumber": "9521", "addr:postcode": "22032", "addr:state": "VA", "addr:street": "Braddock Road", "amenity": "bank", "atm": "yes", "brand": "Truist", "brand:wikidata": "Q795486", "drive_through": "yes", "ele": "128", "gnis:feature_id": "1467216", "name": "Truist", "official_name": "Branch Banking and Trust Company"}}, {"type": "node", "id": 356562060, "lat": 38.8057205, "lon": -77.2976102, "tags": {"addr:housenumber": "10185", "addr:state": "VA", "addr:street": "Zion Drive", "amenity": "place_of_worship", "denomination": "baptist", "gnis:feature_id": "1467452", "name": "Greater Little Zion Church", "phone": "+1-703-764-9111", "religion": "christian", "website": "https://www.glzbc.org/"}}, {"type": "node", "id": 356562416, "lat": 38.806737, "lon": -77.299258, "tags": {"amenity": "place_of_worship", "ele": "107", "gnis:feature_id": "1468195", "name": "Holy Trinity Church", "religion": "christian"}}, {"type": "node", "id": 356563171, "lat": 38.8482147, "lon": -77.259921}, {"type": "node", "id": 356563988, "lat": 38.8309463, "lon": -77.3574859, "tags": {"amenity": "place_of_worship", "ele": "118", "gnis:feature_id": "1471481", "name": "New Mount Zoar Church", "religion": "christian"}}, {"type": "node", "id": 356566447, "lat": 38.8366646, "lon": -77.2972024, "tags": {"amenity": "school", "ele": "129", "gnis:feature_id": "1475436", "name": "Tailwood School"}}, {"type": "node", "id": 356580810, "lat": 38.8887227, "lon": -77.2549824, "tags": {"amenity": "place_of_worship", "ele": "114", "gnis:feature_id": "1491673", "name": "Church of the Nazarene", "religion": "christian"}}, {"type": "node", "id": 356580820, "lat": 38.8929429, "lon": -77.3020959, "tags": {"addr:city": "Oakton", "addr:housenumber": "2709", "addr:postcode": "22124", "addr:state": "VA", "addr:street": "Hunter Mill Road", "amenity": "place_of_worship", "gnis:feature_id": "1491678", "name": "Unitarian Universalist Congregation of Fairfax", "phone": "+1 703-281-4230", "religion": "unitarian_universalist", "short_name": "UUCF", "website": "https://uucf.org/"}}, {"type": "node", "id": 356580828, "lat": 38.8923215, "lon": -77.3034538}, {"type": "node", "id": 356580830, "lat": 38.8820562, "lon": -77.2927615, "tags": {"amenity": "place_of_worship", "ele": "128", "gnis:feature_id": "1491683", "name": "Oakton Church of the Brethren", "religion": "christian"}}, {"type": "node", "id": 356580986, "lat": 38.8395568, "lon": -77.2524829, "tags": {"amenity": "place_of_worship", "denomination": "lutheran", "ele": "118", "gnis:feature_id": "1491827", "name": "Bethlehem Lutheran Church", "religion": "christian"}}, {"type": "node", "id": 356580992, "lat": 38.871501, "lon": -77.3297071, "tags": {"amenity": "place_of_worship", "denomination": "baptist", "ele": "133", "gnis:feature_id": "1491830", "name": "Baptist Fellowship Church", "religion": "christian"}}, {"type": "node", "id": 356581000, "lat": 38.845119, "lon": -77.2575519}, {"type": "node", "id": 356581016, "lat": 38.8442792, "lon": -77.2999842, "tags": {"amenity": "place_of_worship", "ele": "131", "gnis:feature_id": "1491842", "name": "Fairfax Christian Church", "religion": "christian"}}, {"type": "node", "id": 356581017, "lat": 38.8510289, "lon": -77.3184682}, {"type": "node", "id": 356581019, "lat": 38.8468928, "lon": -77.3172501}, {"type": "node", "id": 356581023, "lat": 38.8353109, "lon": -77.2621137, "tags": {"amenity": "place_of_worship", "ele": "125", "gnis:feature_id": "1491847", "name": "First Church of God", "religion": "christian"}}, {"type": "node", "id": 356581025, "lat": 38.8145871, "lon": -77.2688632}, {"type": "node", "id": 356581027, "lat": 38.8183425, "lon": -77.2747073, "tags": {"amenity": "place_of_worship", "denomination": "baptist", "ele": "124", "gnis:feature_id": "1491849", "name": "Fairfax Baptist Temple and Academy", "religion": "christian"}}, {"type": "node", "id": 356581031, "lat": 38.8617201, "lon": -77.3260045, "tags": {"amenity": "place_of_worship", "ele": "138", "gnis:feature_id": "1491851", "name": "Kingdom Hall Jehovahs Witness Church", "religion": "christian"}}, {"type": "node", "id": 356581033, "lat": 38.8801119, "lon": -77.3013729, "tags": {"amenity": "place_of_worship", "denomination": "methodist", "ele": "126", "gnis:feature_id": "1491852", "name": "Oakton Methodist Church", "religion": "christian"}}, {"type": "node", "id": 356581037, "lat": 38.8151385, "lon": -77.2733281, "tags": {"amenity": "place_of_worship", "ele": "129", "gnis:feature_id": "1491854", "name": "Korean Church", "religion": "christian"}}, {"type": "node", "id": 356581041, "lat": 38.8234103, "lon": -77.3162763, "tags": {"amenity": "place_of_worship", "denomination": "mormon", "ele": "133", "gnis:feature_id": "1491856", "name": "The Church of Jesus Christ of Latter-day Saints", "religion": "christian"}}, {"type": "node", "id": 356581043, "lat": 38.8126403, "lon": -77.276324, "tags": {"amenity": "place_of_worship", "denomination": "lutheran", "ele": "78", "gnis:feature_id": "1491857", "name": "Lord of Life Lutheran Church", "religion": "christian"}}, {"type": "node", "id": 356581045, "lat": 38.8476125, "lon": -77.3088734, "tags": {"amenity": "place_of_worship", "denomination": "anglican", "ele": "125", "gnis:feature_id": "1491858", "name": "Truro Episcopal Church", "religion": "christian"}}, {"type": "node", "id": 356581047, "lat": 38.8388234, "lon": -77.2581867, "tags": {"amenity": "place_of_worship", "denomination": "presbyterian", "ele": "112", "gnis:feature_id": "1491859", "name": "Providence Presbyterian Church", "religion": "christian"}}, {"type": "node", "id": 356581049, "lat": 38.8395809, "lon": -77.2552936, "tags": {"amenity": "place_of_worship", "ele": "110", "gnis:feature_id": "1491860", "name": "Seventh Day Adventist Church", "religion": "christian"}}, {"type": "node", "id": 356581057, "lat": 38.8240005, "lon": -77.3176691, "tags": {"amenity": "place_of_worship", "denomination": "methodist", "ele": "129", "gnis:feature_id": "1491864", "name": "Saint Georges United Methodist Church", "religion": "christian"}}, {"type": "node", "id": 356581058, "lat": 38.8227551, "lon": -77.3165642, "tags": {"amenity": "place_of_worship", "ele": "132", "gnis:feature_id": "1491865", "name": "Salvation Army Church", "religion": "christian"}}, {"type": "node", "id": 356581066, "lat": 38.8483107, "lon": -77.315976}, {"type": "node", "id": 356581080, "lat": 38.858427, "lon": -77.2328311}, {"type": "node", "id": 356581108, "lat": 38.8667787, "lon": -77.2460935, "tags": {"amenity": "place_of_worship", "denomination": "methodist", "ele": "97", "gnis:feature_id": "1491936", "name": "Bruen Chapel Methodist Church", "religion": "christian"}}, {"type": "node", "id": 356581127, "lat": 38.8523373, "lon": -77.2322766}, {"type": "node", "id": 356581207, "lat": 38.8367396, "lon": -77.2439829, "tags": {"addr:city": "Annandale", "addr:housenumber": "8617", "addr:postcode": "22003", "addr:state": "VA", "addr:street": "Little River Turnpike", "amenity": "place_of_worship", "denomination": "methodist", "ele": "118", "email": "stmatthews@stmatthewsumc.org", "gnis:feature_id": "1491987", "name": "Saint Matthews Methodist Church", "phone": "+1-703-978-3500", "religion": "christian", "service_times": "Su 08:15,11:15", "website": "https://www.stmatthewsumc.org/"}}, {"type": "node", "id": 356581209, "lat": 38.8408708, "lon": -77.2424329}, {"type": "node", "id": 356581357, "lat": 38.8099113, "lon": -77.3265799, "tags": {"amenity": "place_of_worship", "denomination": "baptist", "ele": "129", "gnis:feature_id": "1492078", "name": "Jerusalem Baptist Church", "religion": "christian"}}, {"type": "node", "id": 356586225, "lat": 38.8726268, "lon": -77.2347682, "tags": {"addr:city": "Merrifield", "addr:housenumber": "8409", "addr:postcode": "22116-9998", "addr:state": "VA", "addr:street": "Route 29", "amenity": "post_office", "ele": "97", "gnis:feature_id": "1498881", "name": "Merrifield Post Office", "opening_hours": "Mo-Fr 09:00-20:00; Sa-Su 09:00-17:00", "operator": "United States Postal Service", "operator:short": "USPS", "operator:type": "public", "operator:website": "https://www.usps.com", "operator:wikidata": "Q668687", "operator:wikipedia": "en:United States Postal Service", "phone": "+1 703-698-6377", "ref": "1437347", "website": "https://tools.usps.com/locations/home.htm?location=1437347"}}, {"type": "node", "id": 356599872, "lat": 38.8540923, "lon": -77.297948}, {"type": "node", "id": 356599993, "lat": 38.8152431, "lon": -77.3037493}, {"type": "node", "id": 356600071, "lat": 38.8686315, "lon": -77.2470255}, {"type": "node", "id": 356600073, "lat": 38.8374549, "lon": -77.235609, "tags": {"amenity": "grave_yard", "ele": "108", "gnis:feature_id": "1761382", "name": "Gooding Family Cemetery"}}, {"type": "node", "id": 356600133, "lat": 38.8213942, "lon": -77.2485876}, {"type": "node", "id": 356604656, "lat": 38.8774005, "lon": -77.3445229}, {"type": "node", "id": 356605226, "lat": 38.8393639, "lon": -77.3114771, "tags": {"amenity": "school", "education": "school", "ele": "137", "gnis:feature_id": "2071135", "name": "George Mason University Center for Social Science Research"}}, {"type": "node", "id": 356605227, "lat": 38.83593, "lon": -77.31222, "tags": {"amenity": "place_of_worship", "denomination": "pentecostal", "ele": "138", "gnis:feature_id": "2071137", "name": "The Greater Pentecostal Temple of Christ", "religion": "christian"}}, {"type": "node", "id": 356605846, "lat": 38.8076702, "lon": -77.3272393, "tags": {"amenity": "place_of_worship", "denomination": "lutheran", "ele": "129", "gnis:feature_id": "2457697", "name": "Living Savior Lutheran Church", "religion": "christian"}}, {"type": "node", "id": 356605859, "lat": 38.843687, "lon": -77.297766, "tags": {"amenity": "place_of_worship", "ele": "135", "gnis:feature_id": "2457884", "name": "All Nations Church of Washington", "religion": "christian"}}, {"type": "node", "id": 356605909, "lat": 38.8743206, "lon": -77.2427052, "tags": {"addr:city": "Fairfax", "addr:housenumber": "2810", "addr:postcode": "22031", "addr:state": "VA", "addr:street": "Old Lee Highway", "amenity": "place_of_worship", "gnis:feature_id": "2458039", "name": "Northern Virginia ECK Center", "phone": "+1 703-916-0515", "religion": "eckankar", "website": "http://eck-virginia.org/"}}, {"type": "node", "id": 356605911, "lat": 38.891509, "lon": -77.276953, "tags": {"amenity": "place_of_worship", "denomination": "lutheran", "ele": "122", "gnis:feature_id": "2458045", "name": "Emmanuel Lutheran Church", "religion": "christian"}}, {"type": "node", "id": 356605937, "lat": 38.8358133, "lon": -77.2617602, "tags": {"amenity": "place_of_worship", "ele": "128", "gnis:feature_id": "2458140", "name": "Highview Christian Fellowship Church", "religion": "christian"}}, {"type": "node", "id": 356605994, "lat": 38.8497291, "lon": -77.3154206, "tags": {"addr:city": "Fairfax", "addr:housenumber": "10730", "addr:postcode": "22030", "addr:state": "VA", "addr:street": "Main Street", "amenity": "clinic", "gnis:feature_id": "2458475", "healthcare": "clinic", "healthcare:speciality": "surgery", "name": "Fairfax Surgical Center", "operator": "HCA Virginia Health System", "phone": "+1 703-691-0670", "website": "https://fairfaxsurgicalcenter.com/"}}, {"type": "node", "id": 356606008, "lat": 38.8079324, "lon": -77.327501, "tags": {"amenity": "school", "ele": "129", "gnis:feature_id": "2458796", "name": "Living Savior Lutheran Church Preschool"}}, {"type": "node", "id": 356606009, "lat": 38.8128795, "lon": -77.2766251, "tags": {"amenity": "school", "ele": "128", "gnis:feature_id": "2458797", "name": "Lord of Life Preschool"}}, {"type": "node", "id": 356606063, "lat": 38.8577099, "lon": -77.3036456, "tags": {"amenity": "kindergarten", "ele": "119", "gnis:feature_id": "2459510", "name": "Fairfax United Methodist Preschool"}}, {"type": "node", "id": 356606068, "lat": 38.8242294, "lon": -77.3180168, "tags": {"amenity": "school", "education": "school", "ele": "129", "gnis:feature_id": "2459549", "name": "Saint Georges United Methodist Church Preschool"}}, {"type": "node", "id": 356606087, "lat": 38.8583066, "lon": -77.334102, "tags": {"amenity": "school", "education": "school", "gnis:feature_id": "2464791", "name": "Oak Valley Center"}}, {"type": "node", "id": 356606095, "lat": 38.8314567, "lon": -77.2765118, "tags": {"addr:housenumber": "9524", "addr:postcode": "22032", "addr:street": "Old Creek Drive", "amenity": "school", "education": "school", "ele": "113", "gnis:feature_id": "2464799", "name": "Olde Creek Special Education Center", "website": "https://www.fcps.edu/OldeCreekES/"}}, {"type": "node", "id": 356606109, "lat": 38.8926611, "lon": -77.3022798, "tags": {"addr:city": "Oakton", "addr:housenumber": "2709", "addr:postcode": "22124", "addr:state": "VA", "addr:street": "Hunter Mill Road", "amenity": "school", "gnis:feature_id": "2464814", "name": "Hunter Mill Montessori School", "phone": "+1 703-938-7755", "website": "https://www.preschoolmontessori.com/"}}, {"type": "node", "id": 356606421, "lat": 38.8223998, "lon": -77.3162046, "tags": {"amenity": "school", "ele": "132", "gnis:feature_id": "2465112", "name": "University View Child Care Center"}}, {"type": "node", "id": 356606436, "lat": 38.8477162, "lon": -77.3092362, "tags": {"amenity": "school", "education": "school", "ele": "123", "gnis:feature_id": "2465127", "name": "Trinity Christian School - Truro Campus"}}, {"type": "node", "id": 356606488, "lat": 38.8477825, "lon": -77.3090548, "tags": {"amenity": "school", "education": "school", "ele": "122", "gnis:feature_id": "2465178", "name": "Truro Preschool and Kindergarten"}}, {"type": "node", "id": 356606655, "lat": 38.8588473, "lon": -77.3322838, "tags": {"amenity": "school", "education": "school", "gnis:feature_id": "2465332", "name": "The Kellar School"}}, {"type": "node", "id": 356606656, "lat": 38.8082042, "lon": -77.3277424, "tags": {"amenity": "school", "ele": "129", "gnis:feature_id": "2465333", "name": "Living Savior Preschool Kindergarten"}}, {"type": "node", "id": 356606799, "lat": 38.8337366, "lon": -77.332533, "tags": {"amenity": "school", "education": "school", "ele": "126", "gnis:feature_id": "2465472", "name": "Trinity Christian School"}}, {"type": "node", "id": 367980885, "lat": 38.8435695, "lon": -77.3055156, "tags": {"addr:state": "VA", "amenity": "fire_station", "ele": "126", "gnis:feature_id": "2331702", "name": "Fairfax County Fire Chief", "source": "USGS Geonames"}}, {"type": "node", "id": 367981374, "lat": 38.8391833, "lon": -77.2519153, "tags": {"addr:state": "VA", "amenity": "fire_station", "ele": "122", "gnis:feature_id": "1491815", "name": "Fairfax County Fire Station Number 23, West Annandale", "source": "USGS Geonames"}}, {"type": "node", "id": 367981383, "lat": 38.8617789, "lon": -77.2933172, "tags": {"addr:state": "VA", "amenity": "fire_station", "ele": "105", "gnis:feature_id": "1491813", "name": "City of Fairfax Fire Station Number 33", "source": "USGS Geonames"}}, {"type": "node", "id": 367981386, "lat": 38.843406, "lon": -77.3079447, "tags": {"addr:state": "VA", "alt_name": "name {Fairfax County Fire Station Number 40, Fairfax Center=1}", "amenity": "fire_station", "ele": "134", "gnis:feature_id": "1491812", "name": "Fairfax County Fire and Rescue Headquarters", "source": "USGS Geonames"}}, {"type": "node", "id": 367981419, "lat": 38.8759093, "lon": -77.3087912}, {"type": "node", "id": 367981457, "lat": 38.8723508, "lon": -77.2482218, "tags": {"addr:state": "VA", "amenity": "fire_station", "ele": "110", "gnis:feature_id": "1491891", "name": "Fairfax County Fire Station Number 30, Merrifield", "source": "USGS Geonames"}}, {"type": "node", "id": 367985992, "lat": 38.8484142, "lon": -77.3651395, "tags": {"addr:state": "VA", "amenity": "fire_station", "ele": "127", "gnis:feature_id": "2331733", "name": "Fairfax County Fire / Rescue Fairfax Center Station 40", "source": "USGS Geonames"}}, {"type": "node", "id": 367986007, "lat": 38.8401523, "lon": -77.2430927, "tags": {"addr:state": "VA", "amenity": "fire_station", "ele": "114", "gnis:feature_id": "2331739", "name": "Fairfax County Fire / Rescue Service", "source": "USGS Geonames"}}, {"type": "node", "id": 367986098, "lat": 38.840569, "lon": -77.3083202, "tags": {"addr:state": "VA", "amenity": "fire_station", "ele": "128", "gnis:feature_id": "2331708", "name": "Fairfax County Fire Marshal", "source": "USGS Geonames"}}, {"type": "node", "id": 367986370, "lat": 38.8295877, "lon": -77.3072043, "tags": {"addr:city": "Fairfax", "addr:housenumber": "4400", "addr:postcode": "22030", "addr:state": "VA", "addr:street": "University Dr", "amenity": "library", "disused:amenity": "library", "ele": "134", "gnis:feature_id": "2041157", "name": "Johnson Center Library", "operator": "George Mason University", "operator:type": "university", "operator:wikidata": "Q1411222", "source": "USGS Geonames", "wheelchair": "yes"}}, {"type": "node", "id": 367988719, "lat": 38.8451125, "lon": -77.311929, "tags": {"addr:state": "VA", "amenity": "police", "ele": "126", "gnis:feature_id": "1491819", "name": "Fairfax County Police Headquarters", "source": "USGS Geonames"}}, {"type": "node", "id": 367988724, "lat": 38.8515029, "lon": -77.2997651}, {"type": "node", "id": 367988797, "lat": 38.8401941, "lon": -77.2425563, "tags": {"addr:state": "VA", "amenity": "police", "ele": "115", "gnis:feature_id": "1491917", "name": "Fairfax County Police Academy", "source": "USGS Geonames"}}, {"type": "node", "id": 367989069, "lat": 38.8245563, "lon": -77.283397, "tags": {"addr:state": "VA", "amenity": "police", "ele": "121", "gnis:feature_id": "2332126", "name": "Virginia State Police Division 7 Headquarters, Area 9 Office, and Area 48 Office", "source": "USGS Geonames"}}, {"type": "node", "id": 367989077, "lat": 38.8397578, "lon": -77.2433601, "tags": {"addr:state": "VA", "amenity": "police", "ele": "114", "gnis:feature_id": "2332124", "name": "Fairfax County Police Department Communications Traffic and Administrative Support", "source": "USGS Geonames"}}, {"type": "node", "id": 367989156, "lat": 38.8433247, "lon": -77.3095285, "tags": {"addr:state": "VA", "amenity": "police", "ele": "132", "gnis:feature_id": "2332121", "name": "Fairfax County Sheriff's Office Confinement and Support Services Division", "source": "USGS Geonames"}}, {"type": "node", "id": 367989435, "lat": 38.8538932, "lon": -77.3571819}, {"type": "node", "id": 367989684, "lat": 38.84652, "lon": -77.30686, "tags": {"addr:state": "VA", "amenity": "police", "ele": "132", "gnis:feature_id": "2331990", "name": "Fairfax County Sheriff's Office Administrative Services Division", "source": "USGS Geonames"}}, {"type": "node", "id": 367989771, "lat": 38.845029, "lon": -77.3117742, "tags": {"addr:state": "VA", "amenity": "police", "ele": "126", "gnis:feature_id": "2332038", "name": "Fairfax County Police Victim Services Section", "source": "USGS Geonames"}}, {"type": "node", "id": 367989909, "lat": 38.8390991, "lon": -77.2496745}, {"type": "node", "id": 367990730, "lat": 38.8409429, "lon": -77.3081539, "tags": {"addr:state": "VA", "amenity": "townhall", "ele": "127", "gnis:feature_id": "1491371", "name": "Fairfax City Hall", "source": "USGS Geonames"}}, {"type": "node", "id": 439661403, "lat": 38.8178514, "lon": -77.2759974, "tags": {"addr:city": "Fairfax", "addr:housenumber": "9579", "addr:postcode": "22032", "addr:state": "VA", "addr:street": "Braddock Road", "amenity": "pharmacy", "brand": "Walgreens", "brand:wikidata": "Q1591889", "dispensing": "yes", "healthcare": "pharmacy", "name": "Walgreens", "opening_hours": "Mo-Su 08:00-22:00", "phone": "+1 703-978-0661", "shop": "chemist", "website": "https://www.walgreens.com/locator/walgreens-9579+braddock+rd-fairfax-va-22032/id=19791"}}, {"type": "node", "id": 469915044, "lat": 38.8354703, "lon": -77.303857}, {"type": "node", "id": 469916625, "lat": 38.8353404, "lon": -77.3022813}, {"type": "node", "id": 469916713, "lat": 38.8351854, "lon": -77.3002173}, {"type": "node", "id": 469916718, "lat": 38.8350404, "lon": -77.3002353}, {"type": "node", "id": 469916881, "lat": 38.8358634, "lon": -77.3064983}, {"type": "node", "id": 469916885, "lat": 38.8360741, "lon": -77.3040019}, {"type": "node", "id": 469916889, "lat": 38.8357424, "lon": -77.3078563}, {"type": "node", "id": 507053751, "lat": 38.8583504, "lon": -77.358128}, {"type": "node", "id": 507053752, "lat": 38.8578995, "lon": -77.3579912}, {"type": "node", "id": 507053753, "lat": 38.8578194, "lon": -77.358424, "tags": {"entrance": "main"}}, {"type": "node", "id": 575981123, "lat": 38.833819, "lon": -77.3072088, "tags": {"addr:city": "Fairfax", "addr:housenumber": "4401", "addr:postcode": "22030-4481", "addr:state": "VA", "addr:street": "University Drive", "amenity": "cafe", "branch": "George Mason Univ. Northern Northeast", "brand": "Starbucks", "brand:wikidata": "Q37158", "cuisine": "coffee_shop", "name": "Starbucks", "number": "70035-79577", "official_name": "Starbucks Coffee", "opening_hours": "24/7", "phone": "+1 703-993-5065", "ref": "10908", "takeaway": "yes", "website": "https://www.starbucks.com/store-locator/store/10908/george-mason-univ-northern-ne-4401-university-drive-fairfax-va-220304481-us", "wheelchair": "yes"}}, {"type": "node", "id": 577249779, "lat": 38.8469424, "lon": -77.3061948, "tags": {"addr:city": "Fairfax", "addr:housenumber": "3971", "addr:postcode": "22030", "addr:state": "VA", "addr:street": "Chain Bridge Road", "amenity": "pub", "level": "2", "name": "The Auld Shebeen"}}, {"type": "node", "id": 581220521, "lat": 38.8788877, "lon": -77.2741763}, {"type": "node", "id": 581220525, "lat": 38.8780246, "lon": -77.2739495}, {"type": "node", "id": 581220529, "lat": 38.8782886, "lon": -77.2722908}, {"type": "node", "id": 581220532, "lat": 38.8791519, "lon": -77.2725176}, {"type": "node", "id": 581221403, "lat": 38.8759268, "lon": -77.2748249}, {"type": "node", "id": 581221405, "lat": 38.8765658, "lon": -77.2746854}, {"type": "node", "id": 581221407, "lat": 38.8767704, "lon": -77.2736018}, {"type": "node", "id": 581221409, "lat": 38.8767056, "lon": -77.2732755, "tags": {"amenity": "parking_entrance"}}, {"type": "node", "id": 581221411, "lat": 38.8761587, "lon": -77.273369}, {"type": "node", "id": 581221413, "lat": 38.8761705, "lon": -77.2735706}, {"type": "node", "id": 581221416, "lat": 38.8757415, "lon": -77.2737021}, {"type": "node", "id": 581221417, "lat": 38.8756679, "lon": -77.2738807}, {"type": "node", "id": 581221420, "lat": 38.8757472, "lon": -77.2745781}, {"type": "node", "id": 587766248, "lat": 38.8598644, "lon": -77.3544243}, {"type": "node", "id": 598053200, "lat": 38.8668242, "lon": -77.3679221, "tags": {"addr:city": "Fairfax", "addr:housenumber": "12156", "addr:postcode": "22033", "addr:state": "VA", "addr:street": "Fairfax Towne Center", "amenity": "fast_food", "branch": "Fairfax Towne Center", "brand": "Five Guys", "brand:wikidata": "Q1131810", "cuisine": "burger", "name": "Five Guys", "official_name": "Five Guys Burgers and Fries", "opening_hours": "11:00-21:30", "phone": "+1 703-267-9676", "takeaway": "yes", "website": "https://restaurants.fiveguys.com/12156-fairfax-town-center"}}, {"type": "node", "id": 600428646, "lat": 38.8514135, "lon": -77.3470672}, {"type": "node", "id": 603311774, "lat": 38.8331574, "lon": -77.2782288, "tags": {"amenity": "bench", "ele": "106.11", "source:ele": "gpx"}}, {"type": "node", "id": 613477840, "lat": 38.8347436, "lon": -77.2781893, "tags": {"amenity": "waste_basket"}}, {"type": "node", "id": 616310468, "lat": 38.8259915, "lon": -77.273885, "tags": {"amenity": "waste_basket", "ele": "102.02", "source:ele": "gpx"}}, {"type": "node", "id": 616319572, "lat": 38.8343879, "lon": -77.2791052, "tags": {"amenity": "bench", "ele": "104.91", "source:ele": "gpx"}}, {"type": "node", "id": 616319575, "lat": 38.8343462, "lon": -77.2790845, "tags": {"amenity": "bench", "ele": "104.43", "source:ele": "gpx"}}, {"type": "node", "id": 616319583, "lat": 38.8355764, "lon": -77.2792863, "tags": {"amenity": "bench", "wpt_description": "16-JAN-10 15:46:17", "wpt_symbol": "Fishing Hot Spot Facility"}}, {"type": "node", "id": 616336537, "lat": 38.834785, "lon": -77.2797228}, {"type": "node", "id": 616336538, "lat": 38.8347913, "lon": -77.2801091}, {"type": "node", "id": 616336540, "lat": 38.8348059, "lon": -77.2801386}, {"type": "node", "id": 616336541, "lat": 38.8348372, "lon": -77.2801654}, {"type": "node", "id": 616336542, "lat": 38.8352467, "lon": -77.2801466}, {"type": "node", "id": 616336543, "lat": 38.8352718, "lon": -77.2801037}, {"type": "node", "id": 616694480, "lat": 38.825464, "lon": -77.314627, "tags": {"addr:city": "Fairfax", "addr:housenumber": "10637", "addr:postcode": "22032", "addr:state": "VA", "addr:street": "Braddock Road", "amenity": "cafe", "cuisine": "coffee_shop", "name": "Gathering Grounds", "phone": "+1-703-278-5400"}}, {"type": "node", "id": 620148935, "lat": 38.8458079, "lon": -77.3155632, "tags": {"addr:city": "Fairfax", "addr:county": "Fairfax", "amenity": "parking"}}, {"type": "node", "id": 621255867, "lat": 38.8548724, "lon": -77.3156782}, {"type": "node", "id": 626289378, "lat": 38.8450915, "lon": -77.2740449, "tags": {"addr:city": "Fairfax", "addr:housenumber": "9622", "addr:postcode": "22031", "addr:state": "VA", "addr:street": "Main Street", "brand": "Safeway", "brand:wikidata": "Q1508234", "name": "Safeway", "opening_hours": "Mo-Su 06:00-23:00", "phone": "+1 703-995-5644", "shop": "supermarket", "website": "https://local.safeway.com/safeway/va/fairfax/9622-main-st.html"}}, {"type": "node", "id": 626289382, "lat": 38.8449557, "lon": -77.2753324, "tags": {"addr:city": "Fairfax", "addr:housenumber": "9650", "addr:postcode": "22031", "addr:state": "VA", "addr:street": "Main Street", "addr:unit": "14", "amenity": "cinema", "email": "cinemaarts@erols.com", "name": "Cinema Arts Theatre", "payment:cash": "yes", "payment:credit_cards": "yes", "phone": "+1-703-978-6853", "screen": "6", "website": "https://www.cinemaartstheatre.com/", "wikidata": "Q43301384"}}, {"type": "node", "id": 626302230, "lat": 38.8508631, "lon": -77.2720381}, {"type": "node", "id": 626928794, "lat": 38.8523576, "lon": -77.2971217}, {"type": "node", "id": 626928795, "lat": 38.8525543, "lon": -77.2972927}, {"type": "node", "id": 626928796, "lat": 38.8527846, "lon": -77.2974685}, {"type": "node", "id": 626928797, "lat": 38.8529937, "lon": -77.2976664}, {"type": "node", "id": 626928798, "lat": 38.8531689, "lon": -77.2978069}, {"type": "node", "id": 626928800, "lat": 38.8533423, "lon": -77.297919}, {"type": "node", "id": 626928801, "lat": 38.8536452, "lon": -77.2979678}, {"type": "node", "id": 626928802, "lat": 38.8539479, "lon": -77.2980264}, {"type": "node", "id": 626928804, "lat": 38.8541958, "lon": -77.2978105}, {"type": "node", "id": 626928807, "lat": 38.8550644, "lon": -77.2984583}, {"type": "node", "id": 626928808, "lat": 38.8554166, "lon": -77.2978505}, {"type": "node", "id": 629865440, "lat": 38.8526437, "lon": -77.2984445}, {"type": "node", "id": 629865443, "lat": 38.852886, "lon": -77.2978624}, {"type": "node", "id": 629865445, "lat": 38.8533246, "lon": -77.2981977}, {"type": "node", "id": 629865446, "lat": 38.8530928, "lon": -77.2987529}, {"type": "node", "id": 644079056, "lat": 38.8907892, "lon": -77.2607173, "tags": {"amenity": "post_box"}}, {"type": "node", "id": 661399145, "lat": 38.8613813, "lon": -77.2694912}, {"type": "node", "id": 661399149, "lat": 38.8611525, "lon": -77.2700129}, {"type": "node", "id": 661420120, "lat": 38.8528972, "lon": -77.2395525}, {"type": "node", "id": 661420124, "lat": 38.8528678, "lon": -77.2388223}, {"type": "node", "id": 661420128, "lat": 38.8526838, "lon": -77.2388345}, {"type": "node", "id": 661420131, "lat": 38.8527132, "lon": -77.2395647}, {"type": "node", "id": 666342554, "lat": 38.8848952, "lon": -77.2753256}, {"type": "node", "id": 666342556, "lat": 38.8851829, "lon": -77.2761066}, {"type": "node", "id": 702034324, "lat": 38.8567049, "lon": -77.3313536}, {"type": "node", "id": 702326284, "lat": 38.8525979, "lon": -77.3270817, "tags": {"addr:city": "Fairfax", "addr:housenumber": "11062", "addr:postcode": "22030", "addr:state": "VA", "addr:street": "Main Street", "amenity": "fast_food", "brand": "Chipotle", "brand:wikidata": "Q465751", "cuisine": "mexican", "name": "Chipotle", "official_name": "Chipotle Mexican Grill", "phone": "+1 703-934-7099", "takeaway": "yes", "website": "https://locations.chipotle.com/va/fairfax/11062-main-st"}}, {"type": "node", "id": 745760633, "lat": 38.8208209, "lon": -77.2635355, "tags": {"amenity": "toilets", "description": "toilet is portable and not always at this location", "fee": "no"}}, {"type": "node", "id": 745760740, "lat": 38.8207946, "lon": -77.2635204}, {"type": "node", "id": 745760744, "lat": 38.8203307, "lon": -77.2628311}, {"type": "node", "id": 745760749, "lat": 38.8204644, "lon": -77.2626702}, {"type": "node", "id": 745760751, "lat": 38.8209304, "lon": -77.2633622}, {"type": "node", "id": 745935428, "lat": 38.82322, "lon": -77.2642916}, {"type": "node", "id": 745935434, "lat": 38.823126, "lon": -77.2637766}, {"type": "node", "id": 745935439, "lat": 38.8233078, "lon": -77.263731}, {"type": "node", "id": 745935446, "lat": 38.8233328, "lon": -77.2638329}, {"type": "node", "id": 745935450, "lat": 38.8237382, "lon": -77.2636908}, {"type": "node", "id": 745935465, "lat": 38.8237633, "lon": -77.2630846}, {"type": "node", "id": 745935467, "lat": 38.824035, "lon": -77.2631302}, {"type": "node", "id": 745935469, "lat": 38.8239305, "lon": -77.2634494}, {"type": "node", "id": 745935471, "lat": 38.8239096, "lon": -77.2638142}, {"type": "node", "id": 745935472, "lat": 38.8234833, "lon": -77.2639805}, {"type": "node", "id": 745935474, "lat": 38.8235021, "lon": -77.2642004}, {"type": "node", "id": 745948205, "lat": 38.8374271, "lon": -77.2736978}, {"type": "node", "id": 745948206, "lat": 38.8371248, "lon": -77.2737427}, {"type": "node", "id": 745948207, "lat": 38.8370051, "lon": -77.2726518}, {"type": "node", "id": 745948208, "lat": 38.8369383, "lon": -77.2725713}, {"type": "node", "id": 745948209, "lat": 38.8359312, "lon": -77.2726088}, {"type": "node", "id": 745948210, "lat": 38.8357766, "lon": -77.2726839}, {"type": "node", "id": 745948211, "lat": 38.8349994, "lon": -77.272818}, {"type": "node", "id": 745948212, "lat": 38.8349701, "lon": -77.2726088}, {"type": "node", "id": 745948213, "lat": 38.8357014, "lon": -77.2725606}, {"type": "node", "id": 745948214, "lat": 38.8357683, "lon": -77.2725123}, {"type": "node", "id": 745948215, "lat": 38.8359103, "lon": -77.2724801}, {"type": "node", "id": 745948216, "lat": 38.8369048, "lon": -77.2724425}, {"type": "node", "id": 745948217, "lat": 38.8373143, "lon": -77.2724318}, {"type": "node", "id": 748631813, "lat": 38.8425344, "lon": -77.3092195, "tags": {"addr:city": "Fairfax", "addr:housenumber": "4150", "addr:postcode": "22030", "addr:state": "VA", "addr:street": "Chain Bridge Road", "amenity": "restaurant"}}, {"type": "node", "id": 754063523, "lat": 38.8291192, "lon": -77.2871291, "tags": {"addr:city": "Fairfax", "addr:housenumber": "9900", "addr:postcode": "22032-1903", "addr:state": "VA", "addr:street": "Braddock Road", "name": "Fairfax Memorial Park Flower Shoppe", "shop": "florist", "website": "https://www.fmpark.com/flowers/"}}, {"type": "node", "id": 766919485, "lat": 38.8214212, "lon": -77.2503358}, {"type": "node", "id": 766919492, "lat": 38.8204508, "lon": -77.250467}, {"type": "node", "id": 766919493, "lat": 38.8200257, "lon": -77.2502284}, {"type": "node", "id": 766919494, "lat": 38.8207227, "lon": -77.2501896}, {"type": "node", "id": 766919495, "lat": 38.8207485, "lon": -77.2502055}, {"type": "node", "id": 766919496, "lat": 38.8207838, "lon": -77.2502231}, {"type": "node", "id": 766919497, "lat": 38.8208218, "lon": -77.2502236}, {"type": "node", "id": 766919498, "lat": 38.8208517, "lon": -77.2501953}, {"type": "node", "id": 766919499, "lat": 38.8208655, "lon": -77.2501544}, {"type": "node", "id": 766919500, "lat": 38.8208618, "lon": -77.2500487}, {"type": "node", "id": 766919501, "lat": 38.8211077, "lon": -77.2496947}, {"type": "node", "id": 766919502, "lat": 38.8211579, "lon": -77.2496169}, {"type": "node", "id": 766919503, "lat": 38.8211767, "lon": -77.2495579}, {"type": "node", "id": 766919504, "lat": 38.8211773, "lon": -77.2495297}, {"type": "node", "id": 766919505, "lat": 38.8211628, "lon": -77.2494792}, {"type": "node", "id": 766919506, "lat": 38.8210603, "lon": -77.2491598}, {"type": "node", "id": 766919507, "lat": 38.8212034, "lon": -77.2492002}, {"type": "node", "id": 766919508, "lat": 38.8213213, "lon": -77.2493357}, {"type": "node", "id": 766919509, "lat": 38.8212486, "lon": -77.2494719}, {"type": "node", "id": 766919510, "lat": 38.8212511, "lon": -77.2495088}, {"type": "node", "id": 766919511, "lat": 38.821277, "lon": -77.249574}, {"type": "node", "id": 766919512, "lat": 38.8213334, "lon": -77.249684}, {"type": "node", "id": 766919513, "lat": 38.8213856, "lon": -77.2497886}, {"type": "node", "id": 766919514, "lat": 38.8214212, "lon": -77.2498208}, {"type": "node", "id": 766919515, "lat": 38.8214483, "lon": -77.2498241}, {"type": "node", "id": 766919516, "lat": 38.8214568, "lon": -77.2499907}, {"type": "node", "id": 766919517, "lat": 38.8214228, "lon": -77.2500012}, {"type": "node", "id": 766919518, "lat": 38.821394, "lon": -77.2500568}, {"type": "node", "id": 766919519, "lat": 38.8212504, "lon": -77.2498818}, {"type": "node", "id": 766919520, "lat": 38.8211981, "lon": -77.2498463}, {"type": "node", "id": 766919521, "lat": 38.8212279, "lon": -77.2498852}, {"type": "node", "id": 766919522, "lat": 38.8210455, "lon": -77.2501447}, {"type": "node", "id": 766919523, "lat": 38.8210147, "lon": -77.2501145}, {"type": "node", "id": 766919524, "lat": 38.8210027, "lon": -77.2501172}, {"type": "node", "id": 766919525, "lat": 38.8209938, "lon": -77.2501305}, {"type": "node", "id": 766919526, "lat": 38.8209854, "lon": -77.2501695}, {"type": "node", "id": 766919527, "lat": 38.8209938, "lon": -77.2502057}, {"type": "node", "id": 766919528, "lat": 38.8210188, "lon": -77.2502292}, {"type": "node", "id": 766919529, "lat": 38.82107, "lon": -77.2502251}, {"type": "node", "id": 766919530, "lat": 38.8210686, "lon": -77.2501702}, {"type": "node", "id": 766919531, "lat": 38.821371, "lon": -77.2501439}, {"type": "node", "id": 766919532, "lat": 38.8213751, "lon": -77.2502043}, {"type": "node", "id": 766919533, "lat": 38.8214671, "lon": -77.2502043}, {"type": "node", "id": 766919534, "lat": 38.8214749, "lon": -77.2503459}, {"type": "node", "id": 766950531, "lat": 38.8319824, "lon": -77.2762698}, {"type": "node", "id": 766950532, "lat": 38.8319406, "lon": -77.2760874}, {"type": "node", "id": 766950533, "lat": 38.8322519, "lon": -77.275964}, {"type": "node", "id": 766950534, "lat": 38.8322958, "lon": -77.2761571}, {"type": "node", "id": 766950535, "lat": 38.8314788, "lon": -77.2761759}, {"type": "node", "id": 766950536, "lat": 38.8315039, "lon": -77.2761169}, {"type": "node", "id": 766950537, "lat": 38.8310944, "lon": -77.2757897}, {"type": "node", "id": 766950538, "lat": 38.8310651, "lon": -77.2758433}, {"type": "node", "id": 766950539, "lat": 38.830923, "lon": -77.2756502}, {"type": "node", "id": 766950540, "lat": 38.830783, "lon": -77.2755402}, {"type": "node", "id": 766950541, "lat": 38.8307454, "lon": -77.2756126}, {"type": "node", "id": 766950542, "lat": 38.8307099, "lon": -77.2755912}, {"type": "node", "id": 766950543, "lat": 38.8304843, "lon": -77.276023}, {"type": "node", "id": 766950544, "lat": 38.830524, "lon": -77.2760659}, {"type": "node", "id": 766950545, "lat": 38.8305031, "lon": -77.2761088}, {"type": "node", "id": 766950546, "lat": 38.8307057, "lon": -77.2762671}, {"type": "node", "id": 766950547, "lat": 38.8309335, "lon": -77.2758138}, {"type": "node", "id": 766950968, "lat": 38.8266312, "lon": -77.2672441}, {"type": "node", "id": 766950969, "lat": 38.8266291, "lon": -77.2666648}, {"type": "node", "id": 766950970, "lat": 38.826673, "lon": -77.2666702}, {"type": "node", "id": 766950971, "lat": 38.8266709, "lon": -77.2672415}, {"type": "node", "id": 766951012, "lat": 38.8258309, "lon": -77.2673058}, {"type": "node", "id": 766951013, "lat": 38.8256387, "lon": -77.2673005}, {"type": "node", "id": 766951014, "lat": 38.8256366, "lon": -77.2665682}, {"type": "node", "id": 766951015, "lat": 38.8256387, "lon": -77.2665253}, {"type": "node", "id": 766951016, "lat": 38.825624, "lon": -77.266359}, {"type": "node", "id": 766951017, "lat": 38.825601, "lon": -77.266241}, {"type": "node", "id": 766951018, "lat": 38.8255718, "lon": -77.2661364}, {"type": "node", "id": 766951019, "lat": 38.8255551, "lon": -77.2660962}, {"type": "node", "id": 766951020, "lat": 38.8256784, "lon": -77.2660264}, {"type": "node", "id": 766951021, "lat": 38.8257013, "lon": -77.2660398}, {"type": "node", "id": 766951022, "lat": 38.8257494, "lon": -77.2661954}, {"type": "node", "id": 766951023, "lat": 38.8257745, "lon": -77.2663081}, {"type": "node", "id": 766951024, "lat": 38.8257849, "lon": -77.2664475}, {"type": "node", "id": 766951025, "lat": 38.8257933, "lon": -77.2665226}, {"type": "node", "id": 766951026, "lat": 38.8258121, "lon": -77.2665763}, {"type": "node", "id": 766951027, "lat": 38.8258309, "lon": -77.2666272}, {"type": "node", "id": 766951028, "lat": 38.8258267, "lon": -77.2669035}, {"type": "node", "id": 766951029, "lat": 38.8258288, "lon": -77.2671047}, {"type": "node", "id": 766951030, "lat": 38.8264473, "lon": -77.2671959}, {"type": "node", "id": 766951031, "lat": 38.8264452, "lon": -77.2671583}, {"type": "node", "id": 766951032, "lat": 38.8261527, "lon": -77.2671664}, {"type": "node", "id": 766951033, "lat": 38.8261527, "lon": -77.2671985}, {"type": "node", "id": 774102103, "lat": 38.85965, "lon": -77.3339163}, {"type": "node", "id": 774102104, "lat": 38.8587933, "lon": -77.3346635}, {"type": "node", "id": 774102106, "lat": 38.8596745, "lon": -77.3338078}, {"type": "node", "id": 774102108, "lat": 38.8589332, "lon": -77.3320854}, {"type": "node", "id": 774102110, "lat": 38.8576821, "lon": -77.3315122}, {"type": "node", "id": 774102111, "lat": 38.8598764, "lon": -77.3328614}, {"type": "node", "id": 774102113, "lat": 38.8568886, "lon": -77.333186}, {"type": "node", "id": 774102115, "lat": 38.858956, "lon": -77.3345689}, {"type": "node", "id": 774102116, "lat": 38.8599202, "lon": -77.3338808}, {"type": "node", "id": 774102118, "lat": 38.8586114, "lon": -77.3322778}, {"type": "node", "id": 774102121, "lat": 38.859693, "lon": -77.3338867}, {"type": "node", "id": 774102122, "lat": 38.8594957, "lon": -77.3319624}, {"type": "node", "id": 774102125, "lat": 38.8587588, "lon": -77.332068}, {"type": "node", "id": 774102127, "lat": 38.8586536, "lon": -77.3349316}, {"type": "node", "id": 774102129, "lat": 38.8590622, "lon": -77.3320144}, {"type": "node", "id": 774102130, "lat": 38.8595608, "lon": -77.3317021}, {"type": "node", "id": 774102134, "lat": 38.8583031, "lon": -77.3322526}, {"type": "node", "id": 774102135, "lat": 38.8572004, "lon": -77.3316473}, {"type": "node", "id": 774102136, "lat": 38.8590435, "lon": -77.3346458}, {"type": "node", "id": 774102138, "lat": 38.8585844, "lon": -77.3324655}, {"type": "node", "id": 774102141, "lat": 38.8596566, "lon": -77.3324198}, {"type": "node", "id": 774102142, "lat": 38.859454, "lon": -77.3315712}, {"type": "node", "id": 774102143, "lat": 38.857671, "lon": -77.3350943}, {"type": "node", "id": 774102148, "lat": 38.8577949, "lon": -77.3327891}, {"type": "node", "id": 774102150, "lat": 38.8573501, "lon": -77.3317089}, {"type": "node", "id": 774102151, "lat": 38.8575746, "lon": -77.3326109}, {"type": "node", "id": 774102152, "lat": 38.8596991, "lon": -77.3345649}, {"type": "node", "id": 774102155, "lat": 38.859762, "lon": -77.3334372}, {"type": "node", "id": 774102156, "lat": 38.8575463, "lon": -77.3342687}, {"type": "node", "id": 774102160, "lat": 38.8595338, "lon": -77.3319655}, {"type": "node", "id": 774102161, "lat": 38.8586765, "lon": -77.332027}, {"type": "node", "id": 774102163, "lat": 38.858525, "lon": -77.3349711}, {"type": "node", "id": 774102165, "lat": 38.8597237, "lon": -77.3345137}, {"type": "node", "id": 774102167, "lat": 38.8585746, "lon": -77.3324923}, {"type": "node", "id": 774102168, "lat": 38.8569605, "lon": -77.3318863}, {"type": "node", "id": 774102170, "lat": 38.8592447, "lon": -77.3347502}, {"type": "node", "id": 774102171, "lat": 38.8585942, "lon": -77.3327557}, {"type": "node", "id": 774102173, "lat": 38.8596745, "lon": -77.3338551}, {"type": "node", "id": 774102175, "lat": 38.8582217, "lon": -77.3336161}, {"type": "node", "id": 774102176, "lat": 38.8589209, "lon": -77.3320396}, {"type": "node", "id": 774102178, "lat": 38.8576188, "lon": -77.3313023}, {"type": "node", "id": 774102179, "lat": 38.8598298, "lon": -77.3328929}, {"type": "node", "id": 774102182, "lat": 38.8589422, "lon": -77.3345156}, {"type": "node", "id": 774102183, "lat": 38.8576188, "lon": -77.3324951}, {"type": "node", "id": 774102184, "lat": 38.8583658, "lon": -77.3338942}, {"type": "node", "id": 774102185, "lat": 38.8599893, "lon": -77.3337526}, {"type": "node", "id": 774102187, "lat": 38.8585832, "lon": -77.3326926}, {"type": "node", "id": 774102190, "lat": 38.8596899, "lon": -77.3339222}, {"type": "node", "id": 774102191, "lat": 38.8595006, "lon": -77.3319813}, {"type": "node", "id": 774102193, "lat": 38.8577766, "lon": -77.3348947}, {"type": "node", "id": 774102195, "lat": 38.8596976, "lon": -77.3336895}, {"type": "node", "id": 774102197, "lat": 38.8586382, "lon": -77.334907}, {"type": "node", "id": 774102198, "lat": 38.8578378, "lon": -77.3326013}, {"type": "node", "id": 774102199, "lat": 38.8590474, "lon": -77.3320365}, {"type": "node", "id": 774102200, "lat": 38.8595043, "lon": -77.3317447}, {"type": "node", "id": 774102202, "lat": 38.8586193, "lon": -77.3344456}, {"type": "node", "id": 774102203, "lat": 38.8579592, "lon": -77.3324702}, {"type": "node", "id": 774102204, "lat": 38.859217, "lon": -77.3348114}, {"type": "node", "id": 774102206, "lat": 38.858604, "lon": -77.3324481}, {"type": "node", "id": 774102207, "lat": 38.8591528, "lon": -77.3320978}, {"type": "node", "id": 774102208, "lat": 38.8587662, "lon": -77.3319876}, {"type": "node", "id": 774102209, "lat": 38.8586006, "lon": -77.3344566}, {"type": "node", "id": 774102213, "lat": 38.8573981, "lon": -77.3314994}, {"type": "node", "id": 774102214, "lat": 38.8600988, "lon": -77.3332967}, {"type": "node", "id": 774102216, "lat": 38.8580735, "lon": -77.3334926}, {"type": "node", "id": 774102217, "lat": 38.8575574, "lon": -77.3325591}, {"type": "node", "id": 774102218, "lat": 38.8589652, "lon": -77.3346103}, {"type": "node", "id": 774102220, "lat": 38.8596638, "lon": -77.3336462}, {"type": "node", "id": 774102221, "lat": 38.8595506, "lon": -77.3320145}, {"type": "node", "id": 774102222, "lat": 38.8584198, "lon": -77.3321832}, {"type": "node", "id": 774102223, "lat": 38.8577171, "lon": -77.3351263}, {"type": "node", "id": 774102227, "lat": 38.8597329, "lon": -77.3344585}, {"type": "node", "id": 774102229, "lat": 38.8582713, "lon": -77.3321328}, {"type": "node", "id": 774102230, "lat": 38.8580231, "lon": -77.3325806}, {"type": "node", "id": 774102231, "lat": 38.8565383, "lon": -77.3321599}, {"type": "node", "id": 774102232, "lat": 38.8592769, "lon": -77.3347581}, {"type": "node", "id": 774102235, "lat": 38.8585795, "lon": -77.3327131}, {"type": "node", "id": 774102236, "lat": 38.8578445, "lon": -77.3349021}, {"type": "node", "id": 774102238, "lat": 38.860023, "lon": -77.3333603}, {"type": "node", "id": 774102240, "lat": 38.8589307, "lon": -77.3320112}, {"type": "node", "id": 774102242, "lat": 38.8573808, "lon": -77.3314501}, {"type": "node", "id": 774102246, "lat": 38.8589683, "lon": -77.3345058}, {"type": "node", "id": 774102247, "lat": 38.8564615, "lon": -77.3322388}, {"type": "node", "id": 774102248, "lat": 38.8584056, "lon": -77.3338677}, {"type": "node", "id": 774102249, "lat": 38.8600921, "lon": -77.3335772}, {"type": "node", "id": 774102251, "lat": 38.8586311, "lon": -77.3326674}, {"type": "node", "id": 774102253, "lat": 38.8596623, "lon": -77.3339557}, {"type": "node", "id": 774102255, "lat": 38.8596776, "lon": -77.3337369}, {"type": "node", "id": 774102256, "lat": 38.8578209, "lon": -77.332555}, {"type": "node", "id": 774102257, "lat": 38.8590763, "lon": -77.3321386}, {"type": "node", "id": 774102259, "lat": 38.8597057, "lon": -77.3323977}, {"type": "node", "id": 774102262, "lat": 38.8568673, "lon": -77.3331273}, {"type": "node", "id": 774102263, "lat": 38.857974, "lon": -77.3325112}, {"type": "node", "id": 774102264, "lat": 38.8581803, "lon": -77.3330081}, {"type": "node", "id": 774102265, "lat": 38.8598342, "lon": -77.3340878}, {"type": "node", "id": 774102267, "lat": 38.8586605, "lon": -77.3324134}, {"type": "node", "id": 774102269, "lat": 38.8591764, "lon": -77.3321658}, {"type": "node", "id": 774102272, "lat": 38.8587711, "lon": -77.3320349}, {"type": "node", "id": 774102273, "lat": 38.8587503, "lon": -77.3348607}, {"type": "node", "id": 774102275, "lat": 38.8591151, "lon": -77.3319893}, {"type": "node", "id": 774102276, "lat": 38.8573827, "lon": -77.3316024}, {"type": "node", "id": 774102277, "lat": 38.8601381, "lon": -77.3332462}, {"type": "node", "id": 774102279, "lat": 38.8573053, "lon": -77.3339574}, {"type": "node", "id": 774102281, "lat": 38.856782, "lon": -77.3330767}, {"type": "node", "id": 774102282, "lat": 38.858324, "lon": -77.3323125}, {"type": "node", "id": 774102283, "lat": 38.8574921, "lon": -77.3324901}, {"type": "node", "id": 774102284, "lat": 38.8590251, "lon": -77.3346773}, {"type": "node", "id": 774102286, "lat": 38.8587334, "lon": -77.3344762}, {"type": "node", "id": 774102288, "lat": 38.8595097, "lon": -77.3320367}, {"type": "node", "id": 774102290, "lat": 38.8584358, "lon": -77.33224}, {"type": "node", "id": 774102291, "lat": 38.8577132, "lon": -77.3350721}, {"type": "node", "id": 774102292, "lat": 38.8585735, "lon": -77.3344727}, {"type": "node", "id": 774102293, "lat": 38.857186, "lon": -77.3331545}, {"type": "node", "id": 774102294, "lat": 38.8597728, "lon": -77.334285}, {"type": "node", "id": 774102296, "lat": 38.8580064, "lon": -77.331354}, {"type": "node", "id": 774102297, "lat": 38.8565076, "lon": -77.3322092}, {"type": "node", "id": 774102298, "lat": 38.8592984, "lon": -77.3348232}, {"type": "node", "id": 774102301, "lat": 38.8579059, "lon": -77.3348685}, {"type": "node", "id": 774102303, "lat": 38.8599414, "lon": -77.3331793}, {"type": "node", "id": 774102304, "lat": 38.8574004, "lon": -77.3343623}, {"type": "node", "id": 774102306, "lat": 38.8590904, "lon": -77.3319182}, {"type": "node", "id": 774102307, "lat": 38.8587133, "lon": -77.3320712}, {"type": "node", "id": 774102309, "lat": 38.8574037, "lon": -77.3316702}, {"type": "node", "id": 774102310, "lat": 38.8573722, "lon": -77.3341362}, {"type": "node", "id": 774102311, "lat": 38.8590021, "lon": -77.3345511}, {"type": "node", "id": 774102312, "lat": 38.8596776, "lon": -77.3345058}, {"type": "node", "id": 774102314, "lat": 38.8585758, "lon": -77.3325175}, {"type": "node", "id": 774102315, "lat": 38.8569337, "lon": -77.3318173}, {"type": "node", "id": 774102733, "lat": 38.8587938, "lon": -77.3339416, "tags": {"name": "ThinkGeek", "office": "company", "website": "https://www.thinkgeek.com/"}}, {"type": "node", "id": 774102736, "lat": 38.8584326, "lon": -77.3332948, "tags": {"name": "The Data Center, Inc.", "office": "company", "website": "http://thedatacenter.com/"}}, {"type": "node", "id": 774109578, "lat": 38.8579102, "lon": -77.3348617}, {"type": "node", "id": 775407633, "lat": 38.834767, "lon": -77.2799279, "tags": {"amenity": "bicycle_parking"}}, {"type": "node", "id": 775407646, "lat": 38.8346394, "lon": -77.2798958, "tags": {"amenity": "toilets", "male": "yes"}}, {"type": "node", "id": 775407647, "lat": 38.834642, "lon": -77.2800648, "tags": {"amenity": "toilets", "female": "yes"}}, {"type": "node", "id": 775407663, "lat": 38.8353092, "lon": -77.2800191}, {"type": "node", "id": 775407664, "lat": 38.8353133, "lon": -77.2797348}, {"type": "node", "id": 775407665, "lat": 38.8352465, "lon": -77.2796436}, {"type": "node", "id": 775407666, "lat": 38.8351566, "lon": -77.2797026}, {"type": "node", "id": 775407667, "lat": 38.8350438, "lon": -77.2797267}, {"type": "node", "id": 775407668, "lat": 38.8349289, "lon": -77.2797267}, {"type": "node", "id": 775408830, "lat": 38.8374804, "lon": -77.2741665}, {"type": "node", "id": 775408831, "lat": 38.837125, "lon": -77.2740348}, {"type": "node", "id": 784464374, "lat": 38.8488967, "lon": -77.3029576}, {"type": "node", "id": 784464378, "lat": 38.8485843, "lon": -77.3030369}, {"type": "node", "id": 784464381, "lat": 38.8484402, "lon": -77.3022165}, {"type": "node", "id": 784464403, "lat": 38.8489311, "lon": -77.3031612}, {"type": "node", "id": 784464407, "lat": 38.8486161, "lon": -77.303239}, {"type": "node", "id": 784464415, "lat": 38.8489958, "lon": -77.3036494}, {"type": "node", "id": 784464417, "lat": 38.8486762, "lon": -77.3037272}, {"type": "node", "id": 784464422, "lat": 38.8489561, "lon": -77.3033133}, {"type": "node", "id": 784622954, "lat": 38.8486243, "lon": -77.3033992}, {"type": "node", "id": 784623026, "lat": 38.8486993, "lon": -77.3038613}, {"type": "node", "id": 784760134, "lat": 38.8463387, "lon": -77.3064335, "tags": {"addr:city": "Fairfax", "addr:housenumber": "10430", "addr:postcode": "22030-3301", "addr:state": "VA", "addr:street": "Main Street", "check_date:opening_hours": "2026-01-20", "name": "Victoria's Cakery", "opening_hours": "Mo-Sa 09:00-14:00", "phone": "+1 703-273-0800", "shop": "bakery", "website": "https://victoriascakery.com"}}, {"type": "node", "id": 784760137, "lat": 38.845657, "lon": -77.3013002}, {"type": "node", "id": 784760140, "lat": 38.8453109, "lon": -77.3005675, "tags": {"addr:city": "Fairfax", "addr:housenumber": "10266", "addr:postcode": "22030", "addr:state": "VA", "addr:street": "Main Street", "amenity": "restaurant", "cuisine": "tex-mex", "name": "Coyote Grille", "opening_hours": "Mo-Th 11:00-21:30; Fr-Sa 11:00-22:00; Su 11:00-21:00", "phone": "+1 703 591 0006", "website": "https://www.coyotegrille.com/", "wheelchair": "yes"}}, {"type": "node", "id": 784760143, "lat": 38.8453464, "lon": -77.3007419, "tags": {"addr:city": "Fairfax", "addr:housenumber": "10268", "addr:postcode": "22030-2508", "addr:state": "VA", "addr:street": "Main Street", "amenity": "restaurant", "cuisine": "deli", "name": "Main Street Bagel Deli", "opening_hours": "Tu-Fr 06:30-17:00; Sa 07:00-17:00; Su 07:00-16:00", "phone": "+1 703 591 2966", "website": "https://www.mainstreetbageldeli.com/"}}, {"type": "node", "id": 784760155, "lat": 38.848042, "lon": -77.3019246}, {"type": "node", "id": 784760160, "lat": 38.8481729, "lon": -77.3020151}, {"type": "node", "id": 784760178, "lat": 38.8458666, "lon": -77.3042885}, {"type": "node", "id": 784760211, "lat": 38.8469239, "lon": -77.3058406}, {"type": "node", "id": 784760213, "lat": 38.8467147, "lon": -77.3059078}, {"type": "node", "id": 784760215, "lat": 38.8466809, "lon": -77.3057422}, {"type": "node", "id": 784760217, "lat": 38.8468892, "lon": -77.3056752}, {"type": "node", "id": 784760230, "lat": 38.8457879, "lon": -77.3007012}, {"type": "node", "id": 784760232, "lat": 38.8453236, "lon": -77.3008702}, {"type": "node", "id": 784760234, "lat": 38.8452531, "lon": -77.3005507}, {"type": "node", "id": 784760241, "lat": 38.8457174, "lon": -77.3003818}, {"type": "node", "id": 784760261, "lat": 38.8457747, "lon": -77.3020642}, {"type": "node", "id": 784760263, "lat": 38.8460344, "lon": -77.3019779}, {"type": "node", "id": 784760264, "lat": 38.8460442, "lon": -77.3020248}, {"type": "node", "id": 784760266, "lat": 38.8461577, "lon": -77.3019858}, {"type": "node", "id": 784760273, "lat": 38.8459209, "lon": -77.3027616}, {"type": "node", "id": 784760276, "lat": 38.846134, "lon": -77.3026811}, {"type": "node", "id": 784760278, "lat": 38.8461403, "lon": -77.3027052}, {"type": "node", "id": 784760282, "lat": 38.846322, "lon": -77.3026382}, {"type": "node", "id": 784760285, "lat": 38.8462077, "lon": -77.3019653}, {"type": "node", "id": 784760324, "lat": 38.8465831, "lon": -77.3059534}, {"type": "node", "id": 784760326, "lat": 38.8465643, "lon": -77.3058649}, {"type": "node", "id": 784760328, "lat": 38.8466959, "lon": -77.3058166}, {"type": "node", "id": 784760333, "lat": 38.8464339, "lon": -77.3053976}, {"type": "node", "id": 784760335, "lat": 38.8462878, "lon": -77.3054514}, {"type": "node", "id": 784760337, "lat": 38.8462539, "lon": -77.3052995}, {"type": "node", "id": 784760338, "lat": 38.8463999, "lon": -77.3052457}, {"type": "node", "id": 784760343, "lat": 38.8465873, "lon": -77.3051675}, {"type": "node", "id": 784760345, "lat": 38.8467175, "lon": -77.3057257}, {"type": "node", "id": 784760346, "lat": 38.8465414, "lon": -77.3057925}, {"type": "node", "id": 784760348, "lat": 38.846416, "lon": -77.3052319}, {"type": "node", "id": 784760361, "lat": 38.8486337, "lon": -77.30216}, {"type": "node", "id": 784760410, "lat": 38.845986, "lon": -77.3043346}, {"type": "node", "id": 784760411, "lat": 38.8458851, "lon": -77.3043717}, {"type": "node", "id": 784760418, "lat": 38.8459675, "lon": -77.3042514}, {"type": "node", "id": 784770527, "lat": 38.845124, "lon": -77.3004074}, {"type": "node", "id": 844291998, "lat": 38.8579793, "lon": -77.305608, "tags": {"addr:city": "Fairfax", "addr:housenumber": "10441", "addr:postcode": "22030", "addr:state": "VA", "addr:street": "Fairfax Boulevard", "name": "Ourisman Fairfax Toyota Service and Parts", "phone": "+1 703 359 2955", "shop": "car_repair", "website": "https://www.ourismanfairfaxtoyota.com/"}}, {"type": "node", "id": 844292001, "lat": 38.8475341, "lon": -77.3049354, "tags": {"addr:city": "Fairfax", "addr:housenumber": "3950", "addr:postcode": "22030", "addr:state": "VA", "addr:street": "University Drive", "amenity": "restaurant", "cuisine": "pizza", "ele": "115.4832764", "name": "Old Dominion Pizza Company", "opening_hours": "Su-Th 11:00-21:00; Fr-Sa 11:00-22:00", "outdoor_seating": "yes", "phone": "+1 571-407-5218", "website": "https://www.olddominionpizza.com/location/fairfax-city/", "wpt_description": "30-JUL-10 16:20:03"}}, {"type": "node", "id": 844292003, "lat": 38.8581557, "lon": -77.3070093, "tags": {"addr:city": "Fairfax", "addr:housenumber": "10485", "addr:postcode": "22030", "addr:state": "VA", "addr:street": "Fairfax Boulevard", "amenity": "fuel", "brand": "Exxon", "brand:wikidata": "Q109675651", "ele": "109.2347412", "name": "Exxon", "wpt_description": "30-JUL-10 16:34:56"}}, {"type": "node", "id": 844292004, "lat": 38.8582888, "lon": -77.3064506, "tags": {"addr:city": "Fairfax", "addr:housenumber": "10473", "addr:postcode": "22030", "addr:state": "VA", "addr:street": "Fairfax Boulevard", "amenity": "restaurant", "brand": "Denny's", "brand:wikidata": "Q1189695", "check_date": "2024-08-18", "cuisine": "american", "ele": "107.0716553", "name": "Denny's", "note": "road name was changed; official website has old name (Lee Highway) instead of new (Fairfax Boulevard)", "opening_hours": "24/7", "phone": "+1 703-273-8133", "website": "https://locations.dennys.com/VA/FAIRFAX/247411", "wpt_description": "30-JUL-10 16:35:35"}}, {"type": "node", "id": 847511860, "lat": 38.8717725, "lon": -77.2626259}, {"type": "node", "id": 847511862, "lat": 38.8686766, "lon": -77.2610494}, {"type": "node", "id": 847511863, "lat": 38.8714656, "lon": -77.26202}, {"type": "node", "id": 847511864, "lat": 38.8717366, "lon": -77.2622097}, {"type": "node", "id": 847511866, "lat": 38.868635, "lon": -77.2625007}, {"type": "node", "id": 847511867, "lat": 38.8700651, "lon": -77.2623054}, {"type": "node", "id": 847511868, "lat": 38.8693463, "lon": -77.2607197}, {"type": "node", "id": 847511871, "lat": 38.8707774, "lon": -77.2605521}, {"type": "node", "id": 847511873, "lat": 38.8712831, "lon": -77.2621595}, {"type": "node", "id": 847511875, "lat": 38.8687526, "lon": -77.2626646}, {"type": "node", "id": 847511877, "lat": 38.8720775, "lon": -77.2612971}, {"type": "node", "id": 847511879, "lat": 38.8721023, "lon": -77.2622042}, {"type": "node", "id": 847511880, "lat": 38.8711296, "lon": -77.262405}, {"type": "node", "id": 847511881, "lat": 38.8707745, "lon": -77.2604803}, {"type": "node", "id": 847511885, "lat": 38.8700983, "lon": -77.262304}, {"type": "node", "id": 847511887, "lat": 38.8715835, "lon": -77.2626591}, {"type": "node", "id": 847511888, "lat": 38.8721562, "lon": -77.2604577}, {"type": "node", "id": 847511890, "lat": 38.8706583, "lon": -77.2614951}, {"type": "node", "id": 847511892, "lat": 38.8705067, "lon": -77.2629091}, {"type": "node", "id": 847511893, "lat": 38.8685261, "lon": -77.2623515}, {"type": "node", "id": 847511894, "lat": 38.8711296, "lon": -77.2623286}, {"type": "node", "id": 847511897, "lat": 38.8685456, "lon": -77.2615904}, {"type": "node", "id": 847511898, "lat": 38.8689605, "lon": -77.262707}, {"type": "node", "id": 847511901, "lat": 38.8712469, "lon": -77.2623443}, {"type": "node", "id": 847511902, "lat": 38.8695053, "lon": -77.2627342}, {"type": "node", "id": 847511908, "lat": 38.871728, "lon": -77.2626241}, {"type": "node", "id": 847511910, "lat": 38.8688817, "lon": -77.2626351}, {"type": "node", "id": 847511911, "lat": 38.8701098, "lon": -77.2624734}, {"type": "node", "id": 847511917, "lat": 38.8686752, "lon": -77.2626241}, {"type": "node", "id": 847511919, "lat": 38.8720878, "lon": -77.2606118}, {"type": "node", "id": 847511922, "lat": 38.8717338, "lon": -77.2621821}, {"type": "node", "id": 847511923, "lat": 38.8690107, "lon": -77.2627051}, {"type": "node", "id": 847511925, "lat": 38.8705476, "lon": -77.2613515}, {"type": "node", "id": 847511926, "lat": 38.8685405, "lon": -77.262218}, {"type": "node", "id": 847511931, "lat": 38.8700731, "lon": -77.262245}, {"type": "node", "id": 847511932, "lat": 38.8713798, "lon": -77.262646}, {"type": "node", "id": 847511934, "lat": 38.8705709, "lon": -77.262125}, {"type": "node", "id": 847511937, "lat": 38.8705146, "lon": -77.2626014}, {"type": "node", "id": 847511938, "lat": 38.8690093, "lon": -77.2626259}, {"type": "node", "id": 847511941, "lat": 38.8714293, "lon": -77.2620991}, {"type": "node", "id": 847511943, "lat": 38.8685979, "lon": -77.261588}, {"type": "node", "id": 847511944, "lat": 38.871245, "lon": -77.2626356}, {"type": "node", "id": 847511949, "lat": 38.8715921, "lon": -77.2622602}, {"type": "node", "id": 847511950, "lat": 38.8720197, "lon": -77.2612952}, {"type": "node", "id": 847511952, "lat": 38.8718542, "lon": -77.2615485}, {"type": "node", "id": 847511954, "lat": 38.8685791, "lon": -77.2624307}, {"type": "node", "id": 847511956, "lat": 38.8701155, "lon": -77.2623334}, {"type": "node", "id": 847511957, "lat": 38.8703629, "lon": -77.2606958}, {"type": "node", "id": 847511961, "lat": 38.8688975, "lon": -77.262707}, {"type": "node", "id": 847511964, "lat": 38.8721525, "lon": -77.2605317}, {"type": "node", "id": 847511967, "lat": 38.8705361, "lon": -77.2620377}, {"type": "node", "id": 847511968, "lat": 38.8684199, "lon": -77.2622392}, {"type": "node", "id": 847511971, "lat": 38.8687555, "lon": -77.2625928}, {"type": "node", "id": 847511972, "lat": 38.8700869, "lon": -77.2622362}, {"type": "node", "id": 847511974, "lat": 38.8718767, "lon": -77.2605172}, {"type": "node", "id": 847511976, "lat": 38.8705895, "lon": -77.2614214}, {"type": "node", "id": 847511979, "lat": 38.8686064, "lon": -77.2625651}, {"type": "node", "id": 847511980, "lat": 38.8706658, "lon": -77.262405}, {"type": "node", "id": 847511983, "lat": 38.8717127, "lon": -77.2626638}, {"type": "node", "id": 847511984, "lat": 38.8720296, "lon": -77.2606103}, {"type": "node", "id": 847511986, "lat": 38.8717323, "lon": -77.2621508}, {"type": "node", "id": 847511987, "lat": 38.869433, "lon": -77.2613197}, {"type": "node", "id": 847511991, "lat": 38.8704861, "lon": -77.2623187}, {"type": "node", "id": 847511992, "lat": 38.8713792, "lon": -77.2622684}, {"type": "node", "id": 847511993, "lat": 38.8717214, "lon": -77.2622648}, {"type": "node", "id": 847511994, "lat": 38.8718471, "lon": -77.2620292}, {"type": "node", "id": 847511996, "lat": 38.8686953, "lon": -77.2625578}, {"type": "node", "id": 847511997, "lat": 38.8700605, "lon": -77.2625972}, {"type": "node", "id": 847512002, "lat": 38.8688172, "lon": -77.2626885}, {"type": "node", "id": 847512005, "lat": 38.8695019, "lon": -77.2628896}, {"type": "node", "id": 847512009, "lat": 38.8720603, "lon": -77.2627232}, {"type": "node", "id": 847512012, "lat": 38.8693362, "lon": -77.2610549}, {"type": "node", "id": 847512014, "lat": 38.8715603, "lon": -77.262206}, {"type": "node", "id": 847512015, "lat": 38.8700651, "lon": -77.2623305}, {"type": "node", "id": 847512016, "lat": 38.8703572, "lon": -77.2607694}, {"type": "node", "id": 847512017, "lat": 38.8713077, "lon": -77.2626404}, {"type": "node", "id": 847512019, "lat": 38.8718776, "lon": -77.2604555}, {"type": "node", "id": 847512020, "lat": 38.8713237, "lon": -77.2621205}, {"type": "node", "id": 847512022, "lat": 38.8684701, "lon": -77.262392}, {"type": "node", "id": 847512024, "lat": 38.8715403, "lon": -77.2626455}, {"type": "node", "id": 847512027, "lat": 38.8715617, "lon": -77.2621471}, {"type": "node", "id": 847512028, "lat": 38.8686025, "lon": -77.261301}, {"type": "node", "id": 847512029, "lat": 38.8713169, "lon": -77.2623653}, {"type": "node", "id": 847512030, "lat": 38.8694112, "lon": -77.2627283}, {"type": "node", "id": 847512031, "lat": 38.8684257, "lon": -77.2604324}, {"type": "node", "id": 847512035, "lat": 38.870096, "lon": -77.2622539}, {"type": "node", "id": 847512037, "lat": 38.8715397, "lon": -77.262268}, {"type": "node", "id": 847512039, "lat": 38.8706612, "lon": -77.2614214}, {"type": "node", "id": 847512043, "lat": 38.8700605, "lon": -77.2624719}, {"type": "node", "id": 847512044, "lat": 38.8706658, "lon": -77.2623286}, {"type": "node", "id": 906158821, "lat": 38.8425854, "lon": -77.270331, "tags": {"addr:city": "Fairfax", "addr:housenumber": "9464", "addr:postcode": "22031", "addr:state": "VA", "addr:street": "Main Street", "branch": "Fairfax", "brand": "Trader Joe's", "brand:wikidata": "Q688825", "name": "Trader Joe's", "opening_hours": "Mo-Su 08:00-21:00", "phone": "+1 703-764-8550", "ref": "643", "shop": "supermarket", "website": "https://locations.traderjoes.com/va/fairfax/643/"}}, {"type": "node", "id": 906163821, "lat": 38.8417665, "lon": -77.2714281, "tags": {"addr:city": "Fairfax", "addr:housenumber": "9490", "addr:postcode": "22031", "addr:state": "VA", "addr:street": "Main Street", "alt_name": "Einstein Brothers Bagels", "amenity": "fast_food", "branch": "Pickett Shopping Center", "brand": "Einstein Bros. Bagels", "brand:wikidata": "Q5349788", "cuisine": "bagel", "name": "Einstein Bros. Bagels", "opening_hours": "Mo-Fr 05:00-17:00; Sa 06:00-16:00; Su 06:00-15:00", "phone": "+1 703-250-4045", "takeaway": "yes", "website": "https://locations.einsteinbros.com/us/va/fairfax/9490-main-st"}}, {"type": "node", "id": 989209423, "lat": 38.808353, "lon": -77.2859708}, {"type": "node", "id": 989209447, "lat": 38.8086569, "lon": -77.285862}, {"type": "node", "id": 989209475, "lat": 38.8084731, "lon": -77.2862393}, {"type": "node", "id": 989209492, "lat": 38.8084254, "lon": -77.2862356}, {"type": "node", "id": 989209510, "lat": 38.8086406, "lon": -77.2857985}, {"type": "node", "id": 1011250646, "lat": 38.830897, "lon": -77.3083441}, {"type": "node", "id": 1030366662, "lat": 38.8719898, "lon": -77.2606693, "tags": {"name": "Pan Am Barbershop", "shop": "hairdresser"}}, {"type": "node", "id": 1233568237, "lat": 38.8743933, "lon": -77.3156847, "tags": {"addr:housenumber": "3200", "addr:street": "Jermantown Road", "amenity": "marketplace", "name": "Vienna/Oakton Farmers Market", "note": "Seasonal market, operated out of the Oak Marr Park & RECenters parking lot; opening_hours are for 2011, will need to be updated in 2012", "opening_hours": "May 4-Nov 16: We 08:00-12:00", "website": "https://www.freshfarm.org/markets/oakton"}}, {"type": "node", "id": 1236090209, "lat": 38.8294578, "lon": -77.3043344, "tags": {"amenity": "parking_entrance"}}, {"type": "node", "id": 1236569894, "lat": 38.8351226, "lon": -77.3065307}, {"type": "node", "id": 1236569908, "lat": 38.8352232, "lon": -77.3051304}, {"type": "node", "id": 1236569909, "lat": 38.829494, "lon": -77.3046097}, {"type": "node", "id": 1236569912, "lat": 38.8342323, "lon": -77.3060383}, {"type": "node", "id": 1236569913, "lat": 38.8342102, "lon": -77.3060407}, {"type": "node", "id": 1236569918, "lat": 38.8351285, "lon": -77.3064626}, {"type": "node", "id": 1236569922, "lat": 38.8284003, "lon": -77.304264}, {"type": "node", "id": 1236569926, "lat": 38.8300147, "lon": -77.3099998}, {"type": "node", "id": 1236569927, "lat": 38.8352264, "lon": -77.305467}, {"type": "node", "id": 1236569930, "lat": 38.8302453, "lon": -77.3102528}, {"type": "node", "id": 1236569932, "lat": 38.8354514, "lon": -77.3059862}, {"type": "node", "id": 1236569937, "lat": 38.8307604, "lon": -77.3093344}, {"type": "node", "id": 1236569942, "lat": 38.8293843, "lon": -77.3040316}, {"type": "node", "id": 1236569947, "lat": 38.830234, "lon": -77.3101542}, {"type": "node", "id": 1236569948, "lat": 38.8352311, "lon": -77.305411}, {"type": "node", "id": 1236569954, "lat": 38.8352801, "lon": -77.3056425}, {"type": "node", "id": 1236569960, "lat": 38.8307821, "lon": -77.3094761}, {"type": "node", "id": 1236569965, "lat": 38.8293809, "lon": -77.3040052}, {"type": "node", "id": 1236569970, "lat": 38.8300017, "lon": -77.3099181}, {"type": "node", "id": 1236569971, "lat": 38.8342101, "lon": -77.3065534}, {"type": "node", "id": 1236569979, "lat": 38.8354303, "lon": -77.3056663}, {"type": "node", "id": 1236570002, "lat": 38.834993, "lon": -77.3050925}, {"type": "node", "id": 1236570009, "lat": 38.8343042, "lon": -77.305024}, {"type": "node", "id": 1236570019, "lat": 38.835099, "lon": -77.3064569}, {"type": "node", "id": 1236570028, "lat": 38.8283726, "lon": -77.30427}, {"type": "node", "id": 1236570033, "lat": 38.8284908, "lon": -77.3048769}, {"type": "node", "id": 1236570035, "lat": 38.834993, "lon": -77.3051351}, {"type": "node", "id": 1236570042, "lat": 38.8302754, "lon": -77.3101792}, {"type": "node", "id": 1236570045, "lat": 38.8354462, "lon": -77.306041}, {"type": "node", "id": 1236570048, "lat": 38.8304472, "lon": -77.3102143}, {"type": "node", "id": 1236570050, "lat": 38.8308104, "lon": -77.3093974}, {"type": "node", "id": 1236570051, "lat": 38.8353909, "lon": -77.3060811}, {"type": "node", "id": 1236570060, "lat": 38.8284497, "lon": -77.3048558}, {"type": "node", "id": 1236570068, "lat": 38.8302151, "lon": -77.3102315}, {"type": "node", "id": 1236570069, "lat": 38.8351981, "lon": -77.305405}, {"type": "node", "id": 1236570079, "lat": 38.8303848, "lon": -77.3102538}, {"type": "node", "id": 1236570082, "lat": 38.8354003, "lon": -77.3059781}, {"type": "node", "id": 1236570083, "lat": 38.835464, "lon": -77.3060439}, {"type": "node", "id": 1236570097, "lat": 38.8307585, "lon": -77.3095354}, {"type": "node", "id": 1236570109, "lat": 38.8283944, "lon": -77.3042191}, {"type": "node", "id": 1236570113, "lat": 38.8294644, "lon": -77.3046625}, {"type": "node", "id": 1236570115, "lat": 38.8303926, "lon": -77.3090911}, {"type": "node", "id": 1236570116, "lat": 38.8341881, "lon": -77.3062346}, {"type": "node", "id": 1236570120, "lat": 38.8307511, "lon": -77.3094577}, {"type": "node", "id": 1236570128, "lat": 38.8307915, "lon": -77.3095572}, {"type": "node", "id": 1236570137, "lat": 38.8343318, "lon": -77.3050334}, {"type": "node", "id": 1236570143, "lat": 38.8341988, "lon": -77.3066696}, {"type": "node", "id": 1236570144, "lat": 38.8350902, "lon": -77.306525}, {"type": "node", "id": 1236570153, "lat": 38.8343134, "lon": -77.3049672}, {"type": "node", "id": 1236570155, "lat": 38.8294585, "lon": -77.3046174}, {"type": "node", "id": 1236570165, "lat": 38.8308009, "lon": -77.3094264}, {"type": "node", "id": 1236570171, "lat": 38.828487, "lon": -77.3048478}, {"type": "node", "id": 1236570178, "lat": 38.8300359, "lon": -77.3099408}, {"type": "node", "id": 1236570179, "lat": 38.8351946, "lon": -77.3054609}, {"type": "node", "id": 1236570184, "lat": 38.830412, "lon": -77.3101889}, {"type": "node", "id": 1236570185, "lat": 38.8354594, "lon": -77.3060919}, {"type": "node", "id": 1236570191, "lat": 38.8307368, "lon": -77.3093889}, {"type": "node", "id": 1236570196, "lat": 38.829417, "lon": -77.3040245}, {"type": "node", "id": 1236570201, "lat": 38.8303558, "lon": -77.3091734}, {"type": "node", "id": 1236570202, "lat": 38.8342073, "lon": -77.3062399}, {"type": "node", "id": 1236570209, "lat": 38.8352351, "lon": -77.3061144}, {"type": "node", "id": 1236570213, "lat": 38.8308651, "lon": -77.3094252}, {"type": "node", "id": 1236570223, "lat": 38.8303228, "lon": -77.309148}, {"type": "node", "id": 1236570224, "lat": 38.8341734, "lon": -77.3065498}, {"type": "node", "id": 1237580335, "lat": 38.8309669, "lon": -77.3088345}, {"type": "node", "id": 1237580347, "lat": 38.8296825, "lon": -77.3056388}, {"type": "node", "id": 1237580356, "lat": 38.8309075, "lon": -77.3083184}, {"type": "node", "id": 1237580361, "lat": 38.830002, "lon": -77.3059305}, {"type": "node", "id": 1237580403, "lat": 38.8295002, "lon": -77.305107}, {"type": "node", "id": 1237580410, "lat": 38.8310897, "lon": -77.308917}, {"type": "node", "id": 1237580428, "lat": 38.8294231, "lon": -77.3052728}, {"type": "node", "id": 1237580467, "lat": 38.8299993, "lon": -77.3054396}, {"type": "node", "id": 1237580491, "lat": 38.8294711, "lon": -77.3050876}, {"type": "node", "id": 1237580495, "lat": 38.8308849, "lon": -77.3086683}, {"type": "node", "id": 1237580516, "lat": 38.8309932, "lon": -77.30877}, {"type": "node", "id": 1237580552, "lat": 38.8299942, "lon": -77.3053856}, {"type": "node", "id": 1237580582, "lat": 38.8295164, "lon": -77.305067}, {"type": "node", "id": 1237580585, "lat": 38.8306762, "lon": -77.3087581}, {"type": "node", "id": 1237580595, "lat": 38.8293859, "lon": -77.3054429}, {"type": "node", "id": 1237580614, "lat": 38.8295127, "lon": -77.3055255}, {"type": "node", "id": 1237580630, "lat": 38.8308357, "lon": -77.3082702}, {"type": "node", "id": 1237580634, "lat": 38.8298337, "lon": -77.3058182}, {"type": "node", "id": 1237580641, "lat": 38.8307861, "lon": -77.3088318}, {"type": "node", "id": 1237580669, "lat": 38.8293761, "lon": -77.305389}, {"type": "node", "id": 1237580688, "lat": 38.8299781, "lon": -77.3054254}, {"type": "node", "id": 1237580698, "lat": 38.8298165, "lon": -77.3057282}, {"type": "node", "id": 1237580704, "lat": 38.8299865, "lon": -77.3059688}, {"type": "node", "id": 1237580709, "lat": 38.8294019, "lon": -77.3052586}, {"type": "node", "id": 1237580712, "lat": 38.8307317, "lon": -77.3085256}, {"type": "node", "id": 1237580718, "lat": 38.8294023, "lon": -77.3054064}, {"type": "node", "id": 1241211572, "lat": 38.8320314, "lon": -77.3072761}, {"type": "node", "id": 1241211606, "lat": 38.8319977, "lon": -77.3073578}, {"type": "node", "id": 1241211615, "lat": 38.8322234, "lon": -77.3068039}, {"type": "node", "id": 1241211644, "lat": 38.8321237, "lon": -77.3070502}, {"type": "node", "id": 1241246041, "lat": 38.8262071, "lon": -77.3016406}, {"type": "node", "id": 1241289057, "lat": 38.8283825, "lon": -77.3043451, "tags": {"amenity": "parking_entrance"}}, {"type": "node", "id": 1241289059, "lat": 38.8291117, "lon": -77.3048431}, {"type": "node", "id": 1241289063, "lat": 38.8292301, "lon": -77.3047133}, {"type": "node", "id": 1241289066, "lat": 38.8292458, "lon": -77.3047438}, {"type": "node", "id": 1241289067, "lat": 38.8294168, "lon": -77.3046729, "tags": {"amenity": "parking_entrance"}}, {"type": "node", "id": 1241289069, "lat": 38.8291676, "lon": -77.3048372}, {"type": "node", "id": 1241289072, "lat": 38.8292239, "lon": -77.3047303}, {"type": "node", "id": 1241289074, "lat": 38.8291472, "lon": -77.3047574}, {"type": "node", "id": 1241289083, "lat": 38.8291535, "lon": -77.3048709}, {"type": "node", "id": 1241289084, "lat": 38.8294309, "lon": -77.3041301, "tags": {"amenity": "parking_entrance"}}, {"type": "node", "id": 1241289095, "lat": 38.8291984, "lon": -77.3048573}, {"type": "node", "id": 1241289103, "lat": 38.8284113, "lon": -77.304564, "tags": {"amenity": "parking_entrance"}}, {"type": "node", "id": 1241289104, "lat": 38.8291967, "lon": -77.3047238}, {"type": "node", "id": 1241289111, "lat": 38.8291752, "lon": -77.3047761}, {"type": "node", "id": 1259655290, "lat": 38.8086776, "lon": -77.2784032}, {"type": "node", "id": 1259655294, "lat": 38.8086536, "lon": -77.2783439}, {"type": "node", "id": 1259655298, "lat": 38.8084881, "lon": -77.2782581}, {"type": "node", "id": 1259655311, "lat": 38.8085747, "lon": -77.2784719}, {"type": "node", "id": 1259655322, "lat": 38.808591, "lon": -77.2781895}, {"type": "node", "id": 1278243723, "lat": 38.8297985, "lon": -77.3092623}, {"type": "node", "id": 1278243728, "lat": 38.8298897, "lon": -77.3090847}, {"type": "node", "id": 1278243745, "lat": 38.8298248, "lon": -77.3092795}, {"type": "node", "id": 1278243756, "lat": 38.8291628, "lon": -77.3094653}, {"type": "node", "id": 1278243759, "lat": 38.8294248, "lon": -77.3087743}, {"type": "node", "id": 1301172507, "lat": 38.8290329, "lon": -77.3119001}, {"type": "node", "id": 1301172511, "lat": 38.8343107, "lon": -77.3127125}, {"type": "node", "id": 1301172514, "lat": 38.8272042, "lon": -77.3024416}, {"type": "node", "id": 1301172516, "lat": 38.8253182, "lon": -77.3041659}, {"type": "node", "id": 1301172524, "lat": 38.8342956, "lon": -77.3127174}, {"type": "node", "id": 1301172527, "lat": 38.8261602, "lon": -77.3059537}, {"type": "node", "id": 1301172529, "lat": 38.8310465, "lon": -77.3005953}, {"type": "node", "id": 1301172533, "lat": 38.8246233, "lon": -77.3060154}, {"type": "node", "id": 1301172535, "lat": 38.8259225, "lon": -77.3080832}, {"type": "node", "id": 1301172538, "lat": 38.8256782, "lon": -77.3061492}, {"type": "node", "id": 1301172540, "lat": 38.8346168, "lon": -77.3134262}, {"type": "node", "id": 1301172541, "lat": 38.8248712, "lon": -77.3049157}, {"type": "node", "id": 1301172543, "lat": 38.8338293, "lon": -77.3131393}, {"type": "node", "id": 1301172552, "lat": 38.8310544, "lon": -77.3008862}, {"type": "node", "id": 1301172553, "lat": 38.8259113, "lon": -77.3051871}, {"type": "node", "id": 1301172555, "lat": 38.8353076, "lon": -77.3170989}, {"type": "node", "id": 1301172556, "lat": 38.8340032, "lon": -77.3141024}, {"type": "node", "id": 1301172558, "lat": 38.8247083, "lon": -77.3057361}, {"type": "node", "id": 1301172560, "lat": 38.8314315, "lon": -77.3047094}, {"type": "node", "id": 1301172563, "lat": 38.8347007, "lon": -77.3167914}, {"type": "node", "id": 1301172568, "lat": 38.8341537, "lon": -77.3137287}, {"type": "node", "id": 1301172571, "lat": 38.8259252, "lon": -77.3078742}, {"type": "node", "id": 1301172575, "lat": 38.8314097, "lon": -77.3050077}, {"type": "node", "id": 1301172577, "lat": 38.8255415, "lon": -77.308225}, {"type": "node", "id": 1301172580, "lat": 38.8249553, "lon": -77.3047238}, {"type": "node", "id": 1301172583, "lat": 38.8261041, "lon": -77.3017666}, {"type": "node", "id": 1301172585, "lat": 38.8263134, "lon": -77.3092822}, {"type": "node", "id": 1301172590, "lat": 38.8249477, "lon": -77.3053742}, {"type": "node", "id": 1301172592, "lat": 38.8286332, "lon": -77.3141899}, {"type": "node", "id": 1301172593, "lat": 38.8343858, "lon": -77.3129326}, {"type": "node", "id": 1301172601, "lat": 38.8343633, "lon": -77.3129202}, {"type": "node", "id": 1301172603, "lat": 38.8342315, "lon": -77.3135932}, {"type": "node", "id": 1301172606, "lat": 38.8251528, "lon": -77.3087609}, {"type": "node", "id": 1301172609, "lat": 38.8348241, "lon": -77.315198}, {"type": "node", "id": 1301172610, "lat": 38.8346012, "lon": -77.3128717}, {"type": "node", "id": 1301172611, "lat": 38.8274777, "lon": -77.3021936}, {"type": "node", "id": 1301172612, "lat": 38.8248922, "lon": -77.3045361}, {"type": "node", "id": 1301172614, "lat": 38.8340013, "lon": -77.3129813}, {"type": "node", "id": 1301172615, "lat": 38.8268937, "lon": -77.3071123}, {"type": "node", "id": 1301172620, "lat": 38.8305718, "lon": -77.3006003}, {"type": "node", "id": 1301172622, "lat": 38.8351513, "lon": -77.3160856}, {"type": "node", "id": 1301172626, "lat": 38.8346318, "lon": -77.3140554}, {"type": "node", "id": 1301172628, "lat": 38.8246759, "lon": -77.3097787}, {"type": "node", "id": 1301172629, "lat": 38.8332725, "lon": -77.3139645}, {"type": "node", "id": 1301172630, "lat": 38.8250511, "lon": -77.3084541}, {"type": "node", "id": 1301172631, "lat": 38.8252797, "lon": -77.3041997}, {"type": "node", "id": 1301172632, "lat": 38.835206, "lon": -77.3173096}, {"type": "node", "id": 1301172636, "lat": 38.8346708, "lon": -77.3144279}, {"type": "node", "id": 1301172638, "lat": 38.8246491, "lon": -77.3060602}, {"type": "node", "id": 1301172639, "lat": 38.8259297, "lon": -77.3118006}, {"type": "node", "id": 1301172641, "lat": 38.8313354, "lon": -77.3049589}, {"type": "node", "id": 1301172642, "lat": 38.8268403, "lon": -77.3084247}, {"type": "node", "id": 1301172644, "lat": 38.8346729, "lon": -77.3163425}, {"type": "node", "id": 1301172645, "lat": 38.8284547, "lon": -77.3125009}, {"type": "node", "id": 1301172647, "lat": 38.8256538, "lon": -77.3061069}, {"type": "node", "id": 1301172648, "lat": 38.8341458, "lon": -77.3133099}, {"type": "node", "id": 1301172649, "lat": 38.8255388, "lon": -77.3077144}, {"type": "node", "id": 1301172653, "lat": 38.8345127, "lon": -77.3154516}, {"type": "node", "id": 1301172655, "lat": 38.8288457, "lon": -77.3119401}, {"type": "node", "id": 1301172656, "lat": 38.8268909, "lon": -77.3028281}, {"type": "node", "id": 1301172658, "lat": 38.8256481, "lon": -77.304761}, {"type": "node", "id": 1301172659, "lat": 38.8342331, "lon": -77.3138882}, {"type": "node", "id": 1301172661, "lat": 38.8255603, "lon": -77.3065958}, {"type": "node", "id": 1301172664, "lat": 38.8247037, "lon": -77.305829}, {"type": "node", "id": 1301172668, "lat": 38.8342815, "lon": -77.3131277}, {"type": "node", "id": 1301172670, "lat": 38.825648, "lon": -77.3080796}, {"type": "node", "id": 1301172672, "lat": 38.8349654, "lon": -77.3153601}, {"type": "node", "id": 1301172674, "lat": 38.8346494, "lon": -77.313191}, {"type": "node", "id": 1301172675, "lat": 38.8248701, "lon": -77.3048229}, {"type": "node", "id": 1301172677, "lat": 38.8338626, "lon": -77.3131845}, {"type": "node", "id": 1301172680, "lat": 38.830816, "lon": -77.3008636}, {"type": "node", "id": 1301172685, "lat": 38.8260308, "lon": -77.3055925}, {"type": "node", "id": 1301172687, "lat": 38.835292, "lon": -77.3167658}, {"type": "node", "id": 1301172689, "lat": 38.8339075, "lon": -77.3141175}, {"type": "node", "id": 1301172690, "lat": 38.8247154, "lon": -77.3056328}, {"type": "node", "id": 1301172692, "lat": 38.831619, "lon": -77.3009765}, {"type": "node", "id": 1301172694, "lat": 38.8347124, "lon": -77.3170347}, {"type": "node", "id": 1301172695, "lat": 38.8341478, "lon": -77.3139093}, {"type": "node", "id": 1301172700, "lat": 38.8275982, "lon": -77.3114271}, {"type": "node", "id": 1301172702, "lat": 38.8254655, "lon": -77.3081131}, {"type": "node", "id": 1301172704, "lat": 38.8249168, "lon": -77.3045771}, {"type": "node", "id": 1301172707, "lat": 38.8258169, "lon": -77.3098559}, {"type": "node", "id": 1301172708, "lat": 38.8249517, "lon": -77.3050416}, {"type": "node", "id": 1301172709, "lat": 38.8285179, "lon": -77.3133073}, {"type": "node", "id": 1301172710, "lat": 38.8343668, "lon": -77.3130305}, {"type": "node", "id": 1301172711, "lat": 38.8342305, "lon": -77.313082}, {"type": "node", "id": 1301172718, "lat": 38.8267724, "lon": -77.3086646}, {"type": "node", "id": 1301172720, "lat": 38.8346728, "lon": -77.3153152}, {"type": "node", "id": 1301172722, "lat": 38.8294077, "lon": -77.3118113}, {"type": "node", "id": 1301172723, "lat": 38.8344614, "lon": -77.3127379}, {"type": "node", "id": 1301172725, "lat": 38.8273292, "lon": -77.3022839}, {"type": "node", "id": 1301172726, "lat": 38.8251866, "lon": -77.3041893}, {"type": "node", "id": 1301172727, "lat": 38.8342222, "lon": -77.312763}, {"type": "node", "id": 1301172728, "lat": 38.8267333, "lon": -77.3067821}, {"type": "node", "id": 1301172731, "lat": 38.8308648, "lon": -77.3005752}, {"type": "node", "id": 1301172733, "lat": 38.8244395, "lon": -77.3062915}, {"type": "node", "id": 1301172738, "lat": 38.8258814, "lon": -77.3058662}, {"type": "node", "id": 1301172739, "lat": 38.8346068, "lon": -77.3137296}, {"type": "node", "id": 1301172741, "lat": 38.825123, "lon": -77.3092835}, {"type": "node", "id": 1301172743, "lat": 38.8332276, "lon": -77.3138115}, {"type": "node", "id": 1301172744, "lat": 38.8252181, "lon": -77.308694}, {"type": "node", "id": 1301172746, "lat": 38.8315858, "lon": -77.3009991}, {"type": "node", "id": 1301172747, "lat": 38.8256805, "lon": -77.3047272}, {"type": "node", "id": 1301172749, "lat": 38.8352795, "lon": -77.3172434}, {"type": "node", "id": 1301172750, "lat": 38.8316503, "lon": -77.3007307}, {"type": "node", "id": 1301172752, "lat": 38.83438, "lon": -77.3127103}, {"type": "node", "id": 1301172753, "lat": 38.8247392, "lon": -77.3058907}, {"type": "node", "id": 1301172755, "lat": 38.8249243, "lon": -77.3104201}, {"type": "node", "id": 1301172756, "lat": 38.8313159, "lon": -77.3047637}, {"type": "node", "id": 1301172758, "lat": 38.8269014, "lon": -77.3080641}, {"type": "node", "id": 1301172760, "lat": 38.8346276, "lon": -77.3164147}, {"type": "node", "id": 1301172761, "lat": 38.8273427, "lon": -77.3012245}, {"type": "node", "id": 1301172765, "lat": 38.834138, "lon": -77.3134579}, {"type": "node", "id": 1301172766, "lat": 38.8345321, "lon": -77.3152681}, {"type": "node", "id": 1301172767, "lat": 38.8257142, "lon": -77.3075528}, {"type": "node", "id": 1301172769, "lat": 38.8314782, "lon": -77.304999}, {"type": "node", "id": 1301172770, "lat": 38.8253541, "lon": -77.3081737}, {"type": "node", "id": 1301172772, "lat": 38.8249062, "lon": -77.3048724}, {"type": "node", "id": 1301172773, "lat": 38.8347047, "lon": -77.3162205}, {"type": "node", "id": 1301172775, "lat": 38.8288815, "lon": -77.3128443}, {"type": "node", "id": 1301172776, "lat": 38.8261969, "lon": -77.3018833}, {"type": "node", "id": 1301172781, "lat": 38.8258222, "lon": -77.3052859}, {"type": "node", "id": 1301172783, "lat": 38.8342706, "lon": -77.3143055}, {"type": "node", "id": 1301172784, "lat": 38.8252887, "lon": -77.3069168}, {"type": "node", "id": 1301172786, "lat": 38.8247513, "lon": -77.3056847}, {"type": "node", "id": 1301172788, "lat": 38.8315061, "lon": -77.3049583}, {"type": "node", "id": 1301172790, "lat": 38.8342456, "lon": -77.3133484}, {"type": "node", "id": 1301172791, "lat": 38.8254328, "lon": -77.3081538}, {"type": "node", "id": 1301172798, "lat": 38.8348916, "lon": -77.3152221}, {"type": "node", "id": 1301172799, "lat": 38.8346494, "lon": -77.3129996}, {"type": "node", "id": 1301172801, "lat": 38.8276668, "lon": -77.3021193}, {"type": "node", "id": 1301172803, "lat": 38.8248859, "lon": -77.3046121}, {"type": "node", "id": 1301172804, "lat": 38.8339876, "lon": -77.3131168}, {"type": "node", "id": 1301172805, "lat": 38.8270218, "lon": -77.3075396}, {"type": "node", "id": 1301172806, "lat": 38.830605, "lon": -77.3008912}, {"type": "node", "id": 1301172807, "lat": 38.835206, "lon": -77.3162903}, {"type": "node", "id": 1301172808, "lat": 38.8248187, "lon": -77.305185}, {"type": "node", "id": 1301172813, "lat": 38.8347573, "lon": -77.317125}, {"type": "node", "id": 1301172815, "lat": 38.8249565, "lon": -77.310165}, {"type": "node", "id": 1301172817, "lat": 38.8341009, "lon": -77.3140197}, {"type": "node", "id": 1301172818, "lat": 38.8253216, "lon": -77.3081318}, {"type": "node", "id": 1301172820, "lat": 38.8249213, "lon": -77.304452}, {"type": "node", "id": 1301172821, "lat": 38.8347177, "lon": -77.3151402}, {"type": "node", "id": 1301172823, "lat": 38.8243201, "lon": -77.3067489}, {"type": "node", "id": 1301172824, "lat": 38.8268989, "lon": -77.3078698}, {"type": "node", "id": 1301172826, "lat": 38.8285215, "lon": -77.3129632}, {"type": "node", "id": 1301172828, "lat": 38.8343159, "lon": -77.3130192}, {"type": "node", "id": 1301172829, "lat": 38.8258456, "lon": -77.3058111}, {"type": "node", "id": 1301172831, "lat": 38.8341791, "lon": -77.3131895}, {"type": "node", "id": 1301172832, "lat": 38.8343504, "lon": -77.3152807}, {"type": "node", "id": 1301172834, "lat": 38.8251559, "lon": -77.3071351}, {"type": "node", "id": 1301172837, "lat": 38.8266747, "lon": -77.3088653}, {"type": "node", "id": 1301172838, "lat": 38.834574, "lon": -77.3153842}, {"type": "node", "id": 1301172840, "lat": 38.8270373, "lon": -77.3078341}, {"type": "node", "id": 1320757323, "lat": 38.8258424, "lon": -77.3050759}, {"type": "node", "id": 1342455345, "lat": 38.8268987, "lon": -77.3071285}, {"type": "node", "id": 1342535323, "lat": 38.8267903, "lon": -77.3086035}, {"type": "node", "id": 1342941287, "lat": 38.8582994, "lon": -77.3704525, "tags": {"amenity": "parking_entrance"}}, {"type": "node", "id": 1350934549, "lat": 38.8272302, "lon": -77.3012886}, {"type": "node", "id": 1350934551, "lat": 38.8272954, "lon": -77.3023266}, {"type": "node", "id": 1350934647, "lat": 38.829208, "lon": -77.3048342}, {"type": "node", "id": 1351917446, "lat": 38.8256344, "lon": -77.3061937}, {"type": "node", "id": 1352073441, "lat": 38.8254015, "lon": -77.3081347}, {"type": "node", "id": 1357145625, "lat": 38.8703072, "lon": -77.3234334}, {"type": "node", "id": 1357145704, "lat": 38.8720979, "lon": -77.3173126}, {"type": "node", "id": 1357145819, "lat": 38.8728262, "lon": -77.3212118}, {"type": "node", "id": 1357145843, "lat": 38.8729707, "lon": -77.322059}, {"type": "node", "id": 1357145939, "lat": 38.8737711, "lon": -77.3155405}, {"type": "node", "id": 1357145986, "lat": 38.8740899, "lon": -77.3149839}, {"type": "node", "id": 1357146076, "lat": 38.8745178, "lon": -77.3149831}, {"type": "node", "id": 1357146081, "lat": 38.8745393, "lon": -77.3154035}, {"type": "node", "id": 1357146134, "lat": 38.8746286, "lon": -77.3163507}, {"type": "node", "id": 1357146261, "lat": 38.8748322, "lon": -77.3144827}, {"type": "node", "id": 1357146307, "lat": 38.8749473, "lon": -77.315794}, {"type": "node", "id": 1357146322, "lat": 38.8749468, "lon": -77.3145726}, {"type": "node", "id": 1357146364, "lat": 38.8750648, "lon": -77.3155044}, {"type": "node", "id": 1357146366, "lat": 38.8750677, "lon": -77.3146924}, {"type": "node", "id": 1357146423, "lat": 38.8751567, "lon": -77.3147687}, {"type": "node", "id": 1357146439, "lat": 38.8752098, "lon": -77.3148232}, {"type": "node", "id": 1357146453, "lat": 38.875231, "lon": -77.3150411}, {"type": "node", "id": 1357146455, "lat": 38.8752394, "lon": -77.3148804}, {"type": "node", "id": 1357146465, "lat": 38.8752564, "lon": -77.3149431}, {"type": "node", "id": 1357146483, "lat": 38.8752888, "lon": -77.3151051}, {"type": "node", "id": 1357146521, "lat": 38.875376, "lon": -77.3157936}, {"type": "node", "id": 1357146535, "lat": 38.8753992, "lon": -77.3158179}, {"type": "node", "id": 1357146573, "lat": 38.875705, "lon": -77.3152108}, {"type": "node", "id": 1357146662, "lat": 38.8764924, "lon": -77.3167616}, {"type": "node", "id": 1357146677, "lat": 38.8767626, "lon": -77.3162931}, {"type": "node", "id": 1385461645, "lat": 38.8429536, "lon": -77.3079089}, {"type": "node", "id": 1385461646, "lat": 38.8430802, "lon": -77.3082642}, {"type": "node", "id": 1385461647, "lat": 38.8431511, "lon": -77.3077929}, {"type": "node", "id": 1385461648, "lat": 38.8432777, "lon": -77.3081481}, {"type": "node", "id": 1385461649, "lat": 38.8435509, "lon": -77.3099494}, {"type": "node", "id": 1385461652, "lat": 38.8437713, "lon": -77.3107077}, {"type": "node", "id": 1385461653, "lat": 38.8437892, "lon": -77.3098208}, {"type": "node", "id": 1385461654, "lat": 38.8439203, "lon": -77.3107903}, {"type": "node", "id": 1385461655, "lat": 38.8439469, "lon": -77.3103066}, {"type": "node", "id": 1385461658, "lat": 38.843978, "lon": -77.3102922}, {"type": "node", "id": 1385461659, "lat": 38.8440245, "lon": -77.310318}, {"type": "node", "id": 1385461662, "lat": 38.8440401, "lon": -77.3103517}, {"type": "node", "id": 1385461663, "lat": 38.8443866, "lon": -77.3101747}, {"type": "node", "id": 1385461664, "lat": 38.844489, "lon": -77.3105032}, {"type": "node", "id": 1385470480, "lat": 38.8443613, "lon": -77.2942562}, {"type": "node", "id": 1385470481, "lat": 38.8444061, "lon": -77.2945695}, {"type": "node", "id": 1385470482, "lat": 38.8444914, "lon": -77.2942256}, {"type": "node", "id": 1385470483, "lat": 38.8445362, "lon": -77.2945389}, {"type": "node", "id": 1385535200, "lat": 38.8389939, "lon": -77.2703843}, {"type": "node", "id": 1385535202, "lat": 38.8390561, "lon": -77.2699249}, {"type": "node", "id": 1385535203, "lat": 38.8394235, "lon": -77.2704803}, {"type": "node", "id": 1385535204, "lat": 38.8394393, "lon": -77.2703641}, {"type": "node", "id": 1385535205, "lat": 38.8394694, "lon": -77.2701241}, {"type": "node", "id": 1385535206, "lat": 38.8394708, "lon": -77.2703712}, {"type": "node", "id": 1385535207, "lat": 38.8394834, "lon": -77.2700204}, {"type": "node", "id": 1385535208, "lat": 38.8395033, "lon": -77.2701317}, {"type": "node", "id": 1385535209, "lat": 38.8396493, "lon": -77.2673714}, {"type": "node", "id": 1385535210, "lat": 38.8397053, "lon": -77.2677992}, {"type": "node", "id": 1385535211, "lat": 38.8399029, "lon": -77.2673167}, {"type": "node", "id": 1385535213, "lat": 38.8399059, "lon": -77.2673393}, {"type": "node", "id": 1385535214, "lat": 38.839974, "lon": -77.2673246}, {"type": "node", "id": 1385535215, "lat": 38.8399753, "lon": -77.2674973}, {"type": "node", "id": 1385535216, "lat": 38.839996, "lon": -77.2674928}, {"type": "node", "id": 1385535217, "lat": 38.8400064, "lon": -77.2677342}, {"type": "node", "id": 1431910728, "lat": 38.8684055, "lon": -77.248868}, {"type": "node", "id": 1431910741, "lat": 38.8709955, "lon": -77.2487087}, {"type": "node", "id": 1431910743, "lat": 38.8709434, "lon": -77.2469202}, {"type": "node", "id": 1431936514, "lat": 38.848246, "lon": -77.2598793}, {"type": "node", "id": 1431936516, "lat": 38.8482997, "lon": -77.258662}, {"type": "node", "id": 1431936531, "lat": 38.8481958, "lon": -77.2599735}, {"type": "node", "id": 1431936534, "lat": 38.8480052, "lon": -77.2586451}, {"type": "node", "id": 1431936535, "lat": 38.8483295, "lon": -77.2597646}, {"type": "node", "id": 1431936543, "lat": 38.8482643, "lon": -77.2586417}, {"type": "node", "id": 1431936547, "lat": 38.8481912, "lon": -77.2600166}, {"type": "node", "id": 1431936549, "lat": 38.8482858, "lon": -77.2586499}, {"type": "node", "id": 1432609911, "lat": 38.8708954, "lon": -77.2613522, "tags": {"amenity": "post_box", "collection_times": "Mo-Sa 17:00", "drive_through": "no", "ref": "2203100013"}}, {"type": "node", "id": 1432609912, "lat": 38.8705558, "lon": -77.2611549, "tags": {"addr:city": "Fairfax", "addr:housenumber": "3053", "addr:postcode": "22031", "addr:state": "VA", "addr:street": "Nutley Street", "amenity": "pharmacy", "brand": "CVS Pharmacy", "brand:website": "https://www.cvs.com/", "brand:wikidata": "Q2078880", "dispensing": "yes", "drive_through": "no", "healthcare": "pharmacy", "name": "CVS Pharmacy", "opening_hours": "Mo-Su 08:00-23:00", "payment:cash": "yes", "payment:credit_cards": "yes", "payment:debit_cards": "yes", "ref": "1399", "short_name": "CVS", "website": "https://www.cvs.com/store-locator/cvs-pharmacy-address/3053+Nutley+Street-Fairfax-VA-22030/storeid=1399"}}, {"type": "node", "id": 1432642440, "lat": 38.8696286, "lon": -77.2611144, "tags": {"addr:city": "Fairfax", "addr:housenumber": "3077", "addr:postcode": "22031", "addr:state": "VA", "addr:street": "Nutley Street", "amenity": "dentist", "healthcare": "dentist", "name": "PanAm Dental", "opening_hours": "Mo-Tu 08:00-17:00, We 10:00-19:00, Sa 08:00-14:00", "phone": "+1-703-280-1100", "website": "https://panamdental.com/"}}, {"type": "node", "id": 1432642445, "lat": 38.8696404, "lon": -77.2533661, "tags": {"amenity": "parking"}}, {"type": "node", "id": 1432642456, "lat": 38.8702762, "lon": -77.2611344, "tags": {"addr:city": "Fairfax", "addr:housenumber": "3061", "addr:postcode": "22031", "addr:state": "VA", "addr:street": "Nutley Street", "amenity": "restaurant", "check_date:opening_hours": "2025-07-12", "cuisine": "american", "name": "Glory Days Grill", "opening_hours:signed": "no", "outdoor_seating": "yes", "takeaway": "yes", "website": "https://www.glorydaysgrill.com/locations/virginia/fairfax/"}}, {"type": "node", "id": 1437164338, "lat": 38.808663, "lon": -77.286153}, {"type": "node", "id": 1447400177, "lat": 38.8677263, "lon": -77.2679782}, {"type": "node", "id": 1447400181, "lat": 38.8677678, "lon": -77.2683124}, {"type": "node", "id": 1447400187, "lat": 38.8680868, "lon": -77.2684082}, {"type": "node", "id": 1447400250, "lat": 38.8696199, "lon": -77.2692979}, {"type": "node", "id": 1447400251, "lat": 38.8696211, "lon": -77.2693999}, {"type": "node", "id": 1447400252, "lat": 38.8696293, "lon": -77.2691967}, {"type": "node", "id": 1447400259, "lat": 38.869649, "lon": -77.2690979}, {"type": "node", "id": 1447400261, "lat": 38.8696678, "lon": -77.2690343}, {"type": "node", "id": 1447400263, "lat": 38.8696909, "lon": -77.2689731}, {"type": "node", "id": 1447400264, "lat": 38.8697332, "lon": -77.2688867}, {"type": "node", "id": 1447400267, "lat": 38.8697841, "lon": -77.2688083}, {"type": "node", "id": 1447400276, "lat": 38.8698427, "lon": -77.2687392}, {"type": "node", "id": 1447400278, "lat": 38.8699315, "lon": -77.2686627}, {"type": "node", "id": 1447400282, "lat": 38.8700058, "lon": -77.2686178}, {"type": "node", "id": 1447400285, "lat": 38.8700843, "lon": -77.2685867}, {"type": "node", "id": 1447400289, "lat": 38.8701654, "lon": -77.2685698}, {"type": "node", "id": 1447400294, "lat": 38.8702202, "lon": -77.2685667}, {"type": "node", "id": 1447400295, "lat": 38.8702749, "lon": -77.2685702}, {"type": "node", "id": 1447400299, "lat": 38.8703559, "lon": -77.2685875}, {"type": "node", "id": 1447400303, "lat": 38.8704343, "lon": -77.2686192}, {"type": "node", "id": 1447400312, "lat": 38.8705105, "lon": -77.2686612}, {"type": "node", "id": 1447576774, "lat": 38.8543409, "lon": -77.2456483}, {"type": "node", "id": 1447576775, "lat": 38.8543155, "lon": -77.2459908}, {"type": "node", "id": 1447576776, "lat": 38.8545283, "lon": -77.2459892}, {"type": "node", "id": 1447576777, "lat": 38.8545456, "lon": -77.2456858}, {"type": "node", "id": 1447576778, "lat": 38.854297, "lon": -77.2457234}, {"type": "node", "id": 1447576779, "lat": 38.8545853, "lon": -77.2457663}, {"type": "node", "id": 1447576780, "lat": 38.8544603, "lon": -77.2460352}, {"type": "node", "id": 1447576781, "lat": 38.8543841, "lon": -77.2460402}, {"type": "node", "id": 1447576782, "lat": 38.854593, "lon": -77.2458605}, {"type": "node", "id": 1447576783, "lat": 38.8542902, "lon": -77.2459382}, {"type": "node", "id": 1447576784, "lat": 38.854474, "lon": -77.2456244}, {"type": "node", "id": 1447576785, "lat": 38.8544015, "lon": -77.2456161}, {"type": "node", "id": 1447576786, "lat": 38.8542734, "lon": -77.2458417}, {"type": "node", "id": 1447576787, "lat": 38.8545561, "lon": -77.2459514}, {"type": "node", "id": 1448093979, "lat": 38.8288526, "lon": -77.3130202}, {"type": "node", "id": 1448093981, "lat": 38.8287223, "lon": -77.3121752}, {"type": "node", "id": 1448093983, "lat": 38.8290073, "lon": -77.3138392}, {"type": "node", "id": 1448093984, "lat": 38.8287793, "lon": -77.3121549}, {"type": "node", "id": 1448093990, "lat": 38.8288227, "lon": -77.3128626}, {"type": "node", "id": 1448093992, "lat": 38.8287658, "lon": -77.3120292}, {"type": "node", "id": 1448093993, "lat": 38.8288519, "lon": -77.3119853}, {"type": "node", "id": 1448093995, "lat": 38.8294137, "lon": -77.3137629}, {"type": "node", "id": 1448093997, "lat": 38.8289089, "lon": -77.3129835}, {"type": "node", "id": 1448093999, "lat": 38.8288436, "lon": -77.3120121}, {"type": "node", "id": 1448094821, "lat": 38.8295915, "lon": -77.3126792}, {"type": "node", "id": 1448094822, "lat": 38.829758, "lon": -77.3138057}, {"type": "node", "id": 1448094823, "lat": 38.8294212, "lon": -77.3138314}, {"type": "node", "id": 1448094824, "lat": 38.8294457, "lon": -77.3120446}, {"type": "node", "id": 1448094825, "lat": 38.8296792, "lon": -77.3132415}, {"type": "node", "id": 1448094826, "lat": 38.8297484, "lon": -77.3137122}, {"type": "node", "id": 1448094827, "lat": 38.8294936, "lon": -77.3120281}, {"type": "node", "id": 1448109468, "lat": 38.8284675, "lon": -77.3129828}, {"type": "node", "id": 1448109469, "lat": 38.8286123, "lon": -77.3136972}, {"type": "node", "id": 1448109472, "lat": 38.8285892, "lon": -77.3137008}, {"type": "node", "id": 1448109473, "lat": 38.8285593, "lon": -77.3142056}, {"type": "node", "id": 1448109474, "lat": 38.8284884, "lon": -77.3132007}, {"type": "node", "id": 1448109475, "lat": 38.8283928, "lon": -77.3124874}, {"type": "node", "id": 1448109476, "lat": 38.8285703, "lon": -77.3137264}, {"type": "node", "id": 1448109477, "lat": 38.8285886, "lon": -77.3137413}, {"type": "node", "id": 1448109478, "lat": 38.8283001, "lon": -77.3117142}, {"type": "node", "id": 1448109479, "lat": 38.8285611, "lon": -77.3133022}, {"type": "node", "id": 1448109480, "lat": 38.8284821, "lon": -77.3130329}, {"type": "node", "id": 1448109481, "lat": 38.828557, "lon": -77.3142656}, {"type": "node", "id": 1448109482, "lat": 38.8283742, "lon": -77.3119999}, {"type": "node", "id": 1448109483, "lat": 38.828514, "lon": -77.3131591}, {"type": "node", "id": 1448109484, "lat": 38.8286165, "lon": -77.3137287}, {"type": "node", "id": 1448109485, "lat": 38.8286142, "lon": -77.3140795}, {"type": "node", "id": 1448109486, "lat": 38.8285971, "lon": -77.3139566}, {"type": "node", "id": 1448109488, "lat": 38.8276675, "lon": -77.3115544}, {"type": "node", "id": 1448109489, "lat": 38.8285019, "lon": -77.3132809}, {"type": "node", "id": 1448109490, "lat": 38.8284069, "lon": -77.3124689}, {"type": "node", "id": 1448109491, "lat": 38.8285048, "lon": -77.31305}, {"type": "node", "id": 1448109492, "lat": 38.828205, "lon": -77.3117169}, {"type": "node", "id": 1448109493, "lat": 38.8286039, "lon": -77.3139842}, {"type": "node", "id": 1448109494, "lat": 38.8277071, "lon": -77.31184},